~VERSION INFORMATION
 VERS.                 2.0:   CWLS LOG ASCII STANDARD - VERSION 2.0
 WRAP.                  NO:   SINGLE LINE PER DEPTH STEP
 CREA.                 01/24/2018 18:21:00
#CREATED USING IP VERSION 4.4.2017.271 BY STROBEJO ON 01/24/2018 18:21:00
~WELL INFORMATION
#MNEM.UNIT       DATA                          DESCRIPTION MNEMONIC
#---------      ---------------------------   --------------------------
 STRT    .M         0.0000                    : START DEPTH
 STOP    .M         1062.9900                 : STOP DEPTH
 STEP    .M         0.1524                    : STEP VALUE
 NULL    .      -999.0000                     : NULL VALUE
 DATE    .      01/24/2018                    : LAS file Creation Date
 WELL  .      Landau 172     : Well Name
 COM1  .      WH             : Well Comment
 COMP  .      Wintershall    : Company
 FLD   .      Landau         : Field
 STATE .      Rheinl.-Pfalz  : State
 COUNT .      Germany        : Country
 API   .      252449617201   : API Number
 UWI   .      252449617201   : Unique Well Identifier (UWI)
 LOC   .                     : Location
 LATI  .      5453494.46     : Latitude/Northing
 LONG  .      436438.29      : Longitude/Easting
 PDAT  .      Mean Sea Level : Permanent Datum
 EPDAT .      0.0000         : Elevation of Permanent Datum
 LGMEA .      GL             : Log Measured from
 DRMEA .      GL             : Drill Measured From
 APDAT .      169.23         : Elevation Above Permanent Datum
 GL    .      169.23         : GL Elevation
 RWS   .      0              : Def_Rw
 WST   .      0              : Def_Rwt
 UTMZ  .      32             : UTM Zone
 DATS  .      28.08.1977     : Spud Date
 COMD  .      15.09.1977     : Completion Date
 BHS   .      Producer - Oil : Completion Status
 CNTY  .      Landau/Pfalz   : County
 PROV  .                     : Province
 MDEC  .      0              : Magnetic Declination
 SRVC  .      SCH            : Contractor
~CURVE INFORMATION
#MNEM              UNIT       API CODE   Curve Type  Comments
#----------  --------------- ----------  ----------- -----------
 DEPTH      .M                         : Depth        
 HAZI       .Deg                       : Azimuth      
 HDEVI      .Deg                       : Deviation    
 TVD        .M                         : Depth        
 TVDSS      .M                         : Depth        
 BS         .inch                      : BitSize      
 Bsal       .ppm                       : BitSize      
 K_reg      .mD                        :              
 Temp       .C                         : Temp         
 PHIE       .Dec                       : Phi          
 PHIT       .Dec                       : PhiT         
 SW         .Dec                       : Sw           
 SXO        .Dec                       : Sxo          
 VCL        .Dec                       : Vcl          
 CGDN       .g/c3                      : CoreGD       
 CPERM      .md                        : CorePerm     
 CPOR       .v/v                       : CorePhi      
 Block      .                          :              
 Layer      .                          :              
 CALI       .IN                        : Caliper      Caliper
 GR         .GAPI                      : GammaRay     Gamma Ray
 MINV       .OHMM                      : MicroInvers  Micro-Inverse Resistivity
 MLL        .OHMM                      : MicroRes     Mll Resistivity
 MNOR       .OHMM                      : MicroNor     Micro-Normal Resistivity
 RD         .OHMM                      : DeepRes      Deep Induction Standard Processed Resistivity
 RS         .OHMM                      : ShalRes      Short Normal
 SP         .MV                        : SP           Spontaneous Potential
 RHOB       .G/C3                      : Density      Bulk Density
 LAT        .OHMM                      : DeepRes      Deep Induction Standard Processed Resistivity
 SIGM       .CU                        : sigma        5  RST Sigma
 TPHI       .m3/m3                     : tdt          6  RST Porosity
 SIGM       .CU                        : sigma        5  RST Sigma
 RW_25C     .                          :              
 SPbu       .MV                        : SP           Spontaneous Potential
~P IP parameters
#Name        Value                 Description
#----- --------------------------  -----------
#Logging Run 
 RUN  .     1                                           : Run Number
 DATE .     09/14/1977                                  : Date                      | RUN[0]
 BS   .     8                                           : Bit Size                  | RUN[1]
 DFT  .     /                                           : Type of Fluid in Hole     | RUN[1]
 DFD  .     1                                           : Mud Weight                | RUN[1]
 RMF  .     .82                                         : Rmf                       | RUN[1]
 MFST .     18                                          : at Meas Temp              | RUN[1]
 BHT  .     75                                          : BHT                       | RUN[1]
 TLAB .     ????/12/10                                  : Time at Bottom            | RUN[1]
 R1   .     Teufe korreliert an SLB-IEL vom 13.09.1977  : Remark 1                  | RUN[1]
 RW   .     1                                           : Rw                        | RUN[1]
 CSIZ .     7                                           : Casing Size               | RUN[1]
~A  DEPTH    HAZI     HDEVI      TVD      TVDSS       BS       Bsal     K_reg      Temp      PHIE      PHIT       SW       SXO       VCL       CGDN     CPERM      CPOR     Block     Layer      CALI       GR       MINV      MLL       MNOR       RD        RS        SP       RHOB      LAT       SIGM      TPHI      SIGM     RW_25C     SPbu   
# ...
1049.7312   60.0000    1.0000 1049.6349  880.4049    9.6250 7800.0000    0.0210   64.2661    0.0001    0.3501    1.0000    1.0000    1.0000 -999.0000 -999.0000   -9.9900    3.0000    5.0000    5.9304 -999.0000    2.0808    1.9524    1.5719    1.5769    2.6943   -0.2566    2.0015    1.5769 -999.0000 -999.0000 -999.0000    0.1800   53.6235 
1049.8836   60.0000    1.0000 1049.7873  880.5573    9.6250 7800.0000    0.0210   64.2740    0.0001    0.3501    1.0000    1.0000    1.0000 -999.0000 -999.0000   -9.9900    3.0000    5.0000    5.9304 -999.0000    1.8190    1.8453    1.4421    1.5769    2.7061   -0.8952    2.0015    1.5769 -999.0000 -999.0000 -999.0000    0.1800   53.7062 
1050.0360   60.0000    1.0000 1049.9397  880.7097    9.6250 7800.0000 -999.0000   64.2819 -999.0000 -999.0000 -999.0000 -999.0000    1.0000 -999.0000 -999.0000   -9.9900    3.0000    5.0000 -999.0000 -999.0000    2.1407    2.6909    1.5818    1.5768    2.7230   -1.5996 -999.0000    1.5768 -999.0000 -999.0000 -999.0000    0.1800   53.8820 
1050.1884   60.0000    1.0000 1050.0921  880.8621    9.6250 7800.0000 -999.0000   64.2898 -999.0000 -999.0000 -999.0000 -999.0000    0.9486 -999.0000 -999.0000   -9.9900    3.0000    5.0000 -999.0000 -999.0000    2.1108    2.4096    1.5818    1.5768    2.7344   -3.0803 -999.0000    1.5768 -999.0000 -999.0000 -999.0000    0.1800   53.2813 
1050.3408   60.0000    1.0000 1050.2444  881.0144    9.6250 7800.0000 -999.0000   64.2976 -999.0000 -999.0000 -999.0000 -999.0000    0.8969 -999.0000 -999.0000   -9.9900    3.0000    5.0000 -999.0000 -999.0000    2.1108    2.4096    1.6014    1.5768    2.7509   -4.1649 -999.0000    1.5768 -999.0000 -999.0000 -999.0000    0.1800   53.0767 
1050.4932   60.0000    1.0000 1050.3968  881.1668    9.6250 7800.0000 -999.0000   64.3055 -999.0000 -999.0000 -999.0000 -999.0000    0.8372 -999.0000 -999.0000   -9.9900    3.0000    5.0000 -999.0000 -999.0000    2.1008    2.4319    1.5905    1.5768    2.8438   -5.4194 -999.0000    1.5768 -999.0000 -999.0000 -999.0000    0.1800   52.7023 
1050.6456   60.0000    1.0000 1050.5492  881.3192    9.6250 7800.0000 -999.0000   64.3134 -999.0000 -999.0000 -999.0000 -999.0000    0.7675 -999.0000 -999.0000   -9.9900    3.0000    5.0000 -999.0000 -999.0000    2.1008    2.4096    1.5889    1.5768    2.9107   -6.8821 -999.0000    1.5768 -999.0000 -999.0000 -999.0000    0.1800   52.1196 
1050.7980   60.0000    1.0000 1050.7016  881.4716    9.6250 7800.0000 -999.0000   64.3213 -999.0000 -999.0000 -999.0000 -999.0000    0.8256 -999.0000 -999.0000   -9.9900    3.0000    5.0000 -999.0000 -999.0000    2.1008    2.4096    1.5889    1.5768    2.9190   -5.6614 -999.0000    1.5768 -999.0000 -999.0000 -999.0000    0.1800   54.2204 
1050.9504   60.0000    1.0000 1050.8539  881.6239    9.6250 7800.0000 -999.0000   64.3291 -999.0000 -999.0000 -999.0000 -999.0000    1.0000 -999.0000 -999.0000   -9.9900    3.0000    5.0000 -999.0000 -999.0000    2.1008    2.4096    1.5889    1.5768    3.0616    0.1811 -999.0000    1.5768 -999.0000 -999.0000 -999.0000    0.1800   60.9430 
1051.1028   60.0000    1.0000 1051.0063  881.7763    9.6250 7800.0000 -999.0000   64.3370 -999.0000 -999.0000 -999.0000 -999.0000    1.0000 -999.0000 -999.0000   -9.9900    3.0000    5.0000 -999.0000 -999.0000 -999.0000 -999.0000 -999.0000    1.5768    3.1048   -0.7606 -999.0000    1.5768 -999.0000 -999.0000 -999.0000    0.1800   60.1090 
1051.2552   60.0000    1.0000 1051.1587  881.9287    9.6250 7800.0000 -999.0000   64.3449 -999.0000 -999.0000 -999.0000 -999.0000    1.0000 -999.0000 -999.0000   -9.9900    3.0000    5.0000 -999.0000 -999.0000 -999.0000 -999.0000 -999.0000    1.5768    2.8665   -0.7939 -999.0000    1.5768 -999.0000 -999.0000 -999.0000    0.1800   60.0757 
1051.4076   60.0000    1.0000 1051.3111  882.0811    9.6250 7800.0000 -999.0000   64.3528 -999.0000 -999.0000 -999.0000 -999.0000    1.0000 -999.0000 -999.0000   -9.9900    3.0000    5.0000 -999.0000 -999.0000 -999.0000 -999.0000 -999.0000    1.5768    2.7824   -1.0076 -999.0000    1.5768 -999.0000 -999.0000 -999.0000    0.1800   59.8620 
1051.5600   60.0000    1.0000 1051.4634  882.2334    9.6250 7800.0000 -999.0000   64.3607 -999.0000 -999.0000 -999.0000 -999.0000    1.0000 -999.0000 -999.0000   -9.9900    3.0000    5.0000 -999.0000 -999.0000 -999.0000 -999.0000 -999.0000    1.5780    2.7112   -1.8417 -999.0000    1.5780 -999.0000 -999.0000 -999.0000    0.1800   59.0279 
1051.7124   60.0000    1.0000 1051.6158  882.3858    9.6250 7800.0000 -999.0000   64.3685 -999.0000 -999.0000 -999.0000 -999.0000    1.0000 -999.0000 -999.0000   -9.9900    3.0000    5.0000 -999.0000 -999.0000 -999.0000 -999.0000 -999.0000    1.5862    2.7106   -1.7940 -999.0000    1.5862 -999.0000 -999.0000 -999.0000    0.1800   59.0756 
1051.8648   60.0000    1.0000 1051.7682  882.5382    9.6250 7800.0000 -999.0000   64.3764 -999.0000 -999.0000 -999.0000 -999.0000    1.0000 -999.0000 -999.0000   -9.9900    3.0000    5.0000 -999.0000 -999.0000 -999.0000 -999.0000 -999.0000    1.5944    2.7386   -1.9589 -999.0000    1.5944 -999.0000 -999.0000 -999.0000    0.1800   58.9107 
1052.0172   60.0000    1.0000 1051.9206  882.6906    9.6250 7800.0000 -999.0000   64.3843 -999.0000 -999.0000 -999.0000 -999.0000    0.9961 -999.0000 -999.0000   -9.9900    3.0000    5.0000 -999.0000 -999.0000 -999.0000 -999.0000 -999.0000    1.6025    2.7517   -2.0810 -999.0000    1.6025 -999.0000 -999.0000 -999.0000    0.1800   58.7885 
1052.1696   60.0000    1.0000 1052.0730  882.8430    9.6250 7800.0000 -999.0000   64.3922 -999.0000 -999.0000 -999.0000 -999.0000    0.9907 -999.0000 -999.0000   -9.9900    3.0000    5.0000 -999.0000 -999.0000 -999.0000 -999.0000 -999.0000    1.6107    2.7598   -2.1957 -999.0000    1.6107 -999.0000 -999.0000 -999.0000    0.1800   58.6739 
1052.3220   60.0000    1.0000 1052.2253  882.9953    9.6250 7800.0000 -999.0000   64.4000 -999.0000 -999.0000 -999.0000 -999.0000    1.0000 -999.0000 -999.0000   -9.9900    3.0000    5.0000 -999.0000 -999.0000 -999.0000 -999.0000 -999.0000    1.6169    2.7585   -1.0283 -999.0000    1.6169 -999.0000 -999.0000 -999.0000    0.1800   59.8412 
1052.4744   60.0000    1.0000 1052.3777  883.1477    9.6250 7800.0000 -999.0000   64.4079 -999.0000 -999.0000 -999.0000 -999.0000    1.0000 -999.0000 -999.0000   -9.9900    3.0000    5.0000 -999.0000 -999.0000 -999.0000 -999.0000 -999.0000    1.6168    2.7671   -0.8674 -999.0000    1.6168 -999.0000 -999.0000 -999.0000    0.1800   60.0022 
1052.6268   60.0000    1.0000 1052.5301  883.3001    9.6250 7800.0000 -999.0000   64.4158 -999.0000 -999.0000 -999.0000 -999.0000    1.0000 -999.0000 -999.0000   -9.9900    3.0000    5.0000 -999.0000 -999.0000 -999.0000 -999.0000 -999.0000    1.6168    2.7664   -1.0066 -999.0000    1.6168 -999.0000 -999.0000 -999.0000    0.1800   59.8630 
1052.7792   60.0000    1.0000 1052.6825  883.4525    9.6250 7800.0000 -999.0000   64.4237 -999.0000 -999.0000 -999.0000 -999.0000    1.0000 -999.0000 -999.0000   -9.9900    3.0000    5.0000 -999.0000 -999.0000 -999.0000 -999.0000 -999.0000    1.6168    2.7666   -1.6559 -999.0000    1.6168 -999.0000 -999.0000 -999.0000    0.1800   59.2136 
1052.9316   60.0000    1.0000 1052.8348  883.6048    9.6250 7800.0000 -999.0000   64.4316 -999.0000 -999.0000 -999.0000 -999.0000    1.0000 -999.0000 -999.0000   -9.9900    3.0000    5.0000 -999.0000 -999.0000 -999.0000 -999.0000 -999.0000    1.6168    2.7659   -1.4316 -999.0000    1.6168 -999.0000 -999.0000 -999.0000    0.1800   59.4379 
1053.0840   60.0000    1.0000 1052.9872  883.7572    9.6250 7800.0000 -999.0000   64.4394 -999.0000 -999.0000 -999.0000 -999.0000    1.0000 -999.0000 -999.0000   -9.9900    3.0000    5.0000 -999.0000 -999.0000 -999.0000 -999.0000 -999.0000    1.6160    2.7742   -1.4110 -999.0000    1.6160 -999.0000 -999.0000 -999.0000    0.1800   59.4586 
1053.2364   60.0000    1.0000 1053.1396  883.9096    9.6250 7800.0000 -999.0000   64.4473 -999.0000 -999.0000 -999.0000 -999.0000    0.9898 -999.0000 -999.0000   -9.9900    3.0000    5.0000 -999.0000 -999.0000 -999.0000 -999.0000 -999.0000    1.6111    2.7745   -2.2139 -999.0000    1.6111 -999.0000 -999.0000 -999.0000    0.1800   58.6556 
