~VERSION INFORMATION
 VERS.                 2.0:   CWLS LOG ASCII STANDARD - VERSION 2.0
 WRAP.                  NO:   SINGLE LINE PER DEPTH STEP
 CREA.                 01/24/2018 18:21:00
#CREATED USING IP VERSION 4.4.2017.271 BY STROBEJO ON 01/24/2018 18:21:00
~WELL INFORMATION
#MNEM.UNIT       DATA                          DESCRIPTION MNEMONIC
#---------      ---------------------------   --------------------------
 STRT    .M         0.0000                    : START DEPTH
 STOP    .M         1062.9900                 : STOP DEPTH
 STEP    .M         0.1524                    : STEP VALUE
 NULL    .      -999.0000                     : NULL VALUE
 DATE    .      01/24/2018                    : LAS file Creation Date
 WELL  .      Landau 172     : Well Name
 COM1  .      WH             : Well Comment
 COMP  .      Wintershall    : Company
 FLD   .      Landau         : Field
 STATE .      Rheinl.-Pfalz  : State
 COUNT .      Germany        : Country
 API   .      252449617201   : API Number
 UWI   .      252449617201   : Unique Well Identifier (UWI)
 LOC   .                     : Location
 LATI  .      5453494.46     : Latitude/Northing
 LONG  .      436438.29      : Longitude/Easting
 PDAT  .      Mean Sea Level : Permanent Datum
 EPDAT .      0.0000         : Elevation of Permanent Datum
 LGMEA .      GL             : Log Measured from
 DRMEA .      GL             : Drill Measured From
 APDAT .      169.23         : Elevation Above Permanent Datum
 GL    .      169.23         : GL Elevation
 RWS   .      0              : Def_Rw
 WST   .      0              : Def_Rwt
 UTMZ  .      32             : UTM Zone
 DATS  .      28.08.1977     : Spud Date
 COMD  .      15.09.1977     : Completion Date
 BHS   .      Producer - Oil : Completion Status
 CNTY  .      Landau/Pfalz   : County
 PROV  .                     : Province
 MDEC  .      0              : Magnetic Declination
 SRVC  .      SCH            : Contractor
~CURVE INFORMATION
#MNEM              UNIT       API CODE   Curve Type  Comments
#----------  --------------- ----------  ----------- -----------
 DEPTH      .M                         : Depth        
 HAZI       .Deg                       : Azimuth      
 HDEVI      .Deg                       : Deviation    
 TVD        .M                         : Depth        
 TVDSS      .M                         : Depth        
 BS         .inch                      : BitSize      
 Bsal       .ppm                       : BitSize      
 K_reg      .mD                        :              
 Temp       .C                         : Temp         
 PHIE       .Dec                       : Phi          
 PHIT       .Dec                       : PhiT         
 SW         .Dec                       : Sw           
 SXO        .Dec                       : Sxo          
 VCL        .Dec                       : Vcl          
 CGDN       .g/c3                      : CoreGD       
 CPERM      .md                        : CorePerm     
 CPOR       .v/v                       : CorePhi      
 Block      .                          :              
 Layer      .                          :              
 CALI       .IN                        : Caliper      Caliper
 GR         .GAPI                      : GammaRay     Gamma Ray
 MINV       .OHMM                      : MicroInvers  Micro-Inverse Resistivity
 MLL        .OHMM                      : MicroRes     Mll Resistivity
 MNOR       .OHMM                      : MicroNor     Micro-Normal Resistivity
 RD         .OHMM                      : DeepRes      Deep Induction Standard Processed Resistivity
 RS         .OHMM                      : ShalRes      Short Normal
 SP         .MV                        : SP           Spontaneous Potential
 RHOB       .G/C3                      : Density      Bulk Density
 LAT        .OHMM                      : DeepRes      Deep Induction Standard Processed Resistivity
 SIGM       .CU                        : sigma        5  RST Sigma
 TPHI       .m3/m3                     : tdt          6  RST Porosity
 SIGM       .CU                        : sigma        5  RST Sigma
 RW_25C     .                          :              
 SPbu       .MV                        : SP           Spontaneous Potential
~P IP parameters
#Name        Value                 Description
#----- --------------------------  -----------
#Logging Run 
 RUN  .     1                                           : Run Number
 DATE .     09/14/1977                                  : Date                      | RUN[0]
 BS   .     8                                           : Bit Size                  | RUN[1]
 DFT  .     /                                           : Type of Fluid in Hole     | RUN[1]
 DFD  .     1                                           : Mud Weight                | RUN[1]
 RMF  .     .82                                         : Rmf                       | RUN[1]
 MFST .     18                                          : at Meas Temp              | RUN[1]
 BHT  .     75                                          : BHT                       | RUN[1]
 TLAB .     ????/12/10                                  : Time at Bottom            | RUN[1]
 R1   .     Teufe korreliert an SLB-IEL vom 13.09.1977  : Remark 1                  | RUN[1]
 RW   .     1                                           : Rw                        | RUN[1]
 CSIZ .     7                                           : Casing Size               | RUN[1]
~A  DEPTH    HAZI     HDEVI      TVD      TVDSS       BS       Bsal     K_reg      Temp      PHIE      PHIT       SW       SXO       VCL       CGDN     CPERM      CPOR     Block     Layer      CALI       GR       MINV      MLL       MNOR       RD        RS        SP       RHOB      LAT       SIGM      TPHI      SIGM     RW_25C     SPbu   
# ...
 362.1024   13.5916    0.5963  362.0884  192.8584    9.6250 7800.0000 -999.0000   28.7200 -999.0000 -999.0000 -999.0000 -999.0000    0.9238 -999.0000 -999.0000   -9.9900    3.0000    1.0000 -999.0000 -999.0000 -999.0000 -999.0000 -999.0000    1.6751    3.1476   -2.4480 -999.0000    1.6751 -999.0000 -999.0000 -999.0000    0.1800   59.1936 
 362.2548   13.6373    0.5962  362.2408  193.0108    9.6250 7800.0000 -999.0000   28.7278 -999.0000 -999.0000 -999.0000 -999.0000    0.9035 -999.0000 -999.0000   -9.9900    3.0000    1.0000 -999.0000 -999.0000 -999.0000 -999.0000 -999.0000    1.6221    3.2348   -2.8344 -999.0000    1.6221 -999.0000 -999.0000 -999.0000    0.1800   58.8037 
 362.4072   13.6831    0.5962  362.3932  193.1632    9.6250 7800.0000 -999.0000   28.7357 -999.0000 -999.0000 -999.0000 -999.0000    0.8669 -999.0000 -999.0000   -9.9900    3.0000    1.0000 -999.0000 -999.0000 -999.0000 -999.0000 -999.0000    1.6029    3.7245   -3.5280 -999.0000    1.6029 -999.0000 -999.0000 -999.0000    0.1800   58.1067 
 362.5596   13.7289    0.5962  362.5455  193.3156    9.6250 7800.0000 -999.0000   28.7436 -999.0000 -999.0000 -999.0000 -999.0000    0.8675 -999.0000 -999.0000   -9.9900    3.0000    1.0000 -999.0000 -999.0000 -999.0000 -999.0000 -999.0000    1.5879    3.7626   -3.5172 -999.0000    1.5879 -999.0000 -999.0000 -999.0000    0.1800   58.1139 
 362.7120   13.7747    0.5961  362.6979  193.4679    9.6250 7800.0000 -999.0000   28.7515 -999.0000 -999.0000 -999.0000 -999.0000    0.8707 -999.0000 -999.0000   -9.9900    3.0000    1.0000 -999.0000 -999.0000 -999.0000 -999.0000 -999.0000    1.5767    3.1362   -3.4576 -999.0000    1.5767 -999.0000 -999.0000 -999.0000    0.1800   58.1700 
 362.8644   13.8205    0.5961  362.8503  193.6203    9.6250 7800.0000 -999.0000   28.7594 -999.0000 -999.0000 -999.0000 -999.0000    0.8757 -999.0000 -999.0000   -9.9900    3.0000    1.0000 -999.0000 -999.0000 -999.0000 -999.0000 -999.0000    1.5769    2.7274   -3.3616 -999.0000    1.5769 -999.0000 -999.0000 -999.0000    0.1800   58.2625 
 363.0168   13.8663    0.5961  363.0027  193.7727    9.6250 7800.0000 -999.0000   28.7672 -999.0000 -999.0000 -999.0000 -999.0000    0.8894 -999.0000 -999.0000   -9.9900    3.0000    1.0000 -999.0000 -999.0000 -999.0000 -999.0000 -999.0000    1.5765    2.7431   -3.1008 -999.0000    1.5765 -999.0000 -999.0000 -999.0000    0.1800   58.5198 
 363.1692   13.9121    0.5960  363.1551  193.9251    9.6250 7800.0000 -999.0000   28.7751 -999.0000 -999.0000 -999.0000 -999.0000    0.8976 -999.0000 -999.0000   -9.9900    3.0000    1.0000 -999.0000 -999.0000 -999.0000 -999.0000 -999.0000    1.5383    3.2225   -2.9461 -999.0000    1.5383 -999.0000 -999.0000 -999.0000    0.1800   58.6710 
 363.3216   13.9579    0.5960  363.3075  194.0775    9.6250 7800.0000 -999.0000   28.7830 -999.0000 -999.0000 -999.0000 -999.0000    0.8967 -999.0000 -999.0000   -9.9900    3.0000    1.0000 -999.0000 -999.0000 -999.0000 -999.0000 -999.0000    1.4970    3.2614   -2.9630 -999.0000    1.4970 -999.0000 -999.0000 -999.0000    0.1800   58.6506 
 363.4740   14.0037    0.5960  363.4599  194.2299    9.6250 7800.0000 -999.0000   28.7909 -999.0000 -999.0000 -999.0000 -999.0000    0.8973 -999.0000 -999.0000   -9.9900    3.0000    1.0000 -999.0000 -999.0000 -999.0000 -999.0000 -999.0000    1.4559    3.1707   -2.9517 -999.0000    1.4559 -999.0000 -999.0000 -999.0000    0.1800   58.6584 
 363.6264   14.0495    0.5959  363.6123  194.3823    9.6250 7800.0000 -999.0000   28.7988 -999.0000 -999.0000 -999.0000 -999.0000    0.8796 -999.0000 -999.0000   -9.9900    3.0000    1.0000 -999.0000 -999.0000 -999.0000 -999.0000 -999.0000    1.4148    3.0887   -3.2872 -999.0000    1.4148 -999.0000 -999.0000 -999.0000    0.1800   58.3195 
 363.7788   14.0953    0.5959  363.7647  194.5347    9.6250 7800.0000 -999.0000   28.8066 -999.0000 -999.0000 -999.0000 -999.0000    0.8805 -999.0000 -999.0000   -9.9900    3.0000    1.0000 -999.0000 -999.0000 -999.0000 -999.0000 -999.0000    1.3736    3.1038   -3.2710 -999.0000    1.3736 -999.0000 -999.0000 -999.0000    0.1800   58.3321 
 363.9312   14.1411    0.5959  363.9171  194.6871    9.6250 7800.0000 -999.0000   28.8145 -999.0000 -999.0000 -999.0000 -999.0000    0.8903 -999.0000 -999.0000   -9.9900    3.0000    1.0000 -999.0000 -999.0000 -999.0000 -999.0000 -999.0000    1.3325    3.0252   -3.0834 -999.0000    1.3325 -999.0000 -999.0000 -999.0000    0.1800   58.5162 
 364.0836   14.1870    0.5959  364.0695  194.8395    9.6250 7800.0000 -999.0000   28.8224 -999.0000 -999.0000 -999.0000 -999.0000    0.9090 -999.0000 -999.0000   -9.9900    3.0000    1.0000 -999.0000 -999.0000 -999.0000 -999.0000 -999.0000    1.2885    2.9020   -2.7295 -999.0000    1.2885 -999.0000 -999.0000 -999.0000    0.1800   58.8666 
 364.2360   14.2328    0.5958  364.2219  194.9919    9.6250 7800.0000 -999.0000   28.8303 -999.0000 -999.0000 -999.0000 -999.0000    0.9346 -999.0000 -999.0000   -9.9900    3.0000    1.0000 -999.0000 -999.0000 -999.0000 -999.0000 -999.0000    1.2283    2.7090   -2.2419 -999.0000    1.2283 -999.0000 -999.0000 -999.0000    0.1800   59.3508 
 364.3884   14.2786    0.5958  364.3742  195.1443    9.6250 7800.0000 -999.0000   28.8381 -999.0000 -999.0000 -999.0000 -999.0000    0.9478 -999.0000 -999.0000   -9.9900    3.0000    1.0000 -999.0000 -999.0000 -999.0000 -999.0000 -999.0000    1.1680    2.4630   -1.9915 -999.0000    1.1680 -999.0000 -999.0000 -999.0000    0.1800   59.5977 
 364.5408   14.3245    0.5958  364.5266  195.2966    9.6250 7800.0000 -999.0000   28.8460 -999.0000 -999.0000 -999.0000 -999.0000    0.9704 -999.0000 -999.0000   -9.9900    3.0000    1.0000 -999.0000 -999.0000 -999.0000 -999.0000 -999.0000    1.1064    2.3007   -1.5623 -999.0000    1.1064 -999.0000 -999.0000 -999.0000    0.1800   60.0233 
 364.6932   14.3703    0.5958  364.6790  195.4490    9.6250 7800.0000 -999.0000   28.8539 -999.0000 -999.0000 -999.0000 -999.0000    0.9726 -999.0000 -999.0000   -9.9900    3.0000    1.0000 -999.0000 -999.0000 -999.0000 -999.0000 -999.0000    1.1175    2.2740   -1.5199 -999.0000    1.1175 -999.0000 -999.0000 -999.0000    0.1800   60.0623 
 364.8456   14.4162    0.5957  364.8314  195.6014    9.6250 7800.0000 -999.0000   28.8618 -999.0000 -999.0000 -999.0000 -999.0000    0.9726 -999.0000 -999.0000   -9.9900    3.0000    1.0000 -999.0000 -999.0000 -999.0000 -999.0000 -999.0000    1.1381    2.3753   -1.5210 -999.0000    1.1381 -999.0000 -999.0000 -999.0000    0.1800   60.0576 
 364.9980   14.4620    0.5957  364.9838  195.7538    9.6250 7800.0000 -999.0000   28.8697 -999.0000 -999.0000 -999.0000 -999.0000    0.9735 -999.0000 -999.0000   -9.9900    3.0000    1.0000 -999.0000 -999.0000 -999.0000 -999.0000 -999.0000    1.1377    2.5828   -1.5026 -999.0000    1.1377 -999.0000 -999.0000 -999.0000    0.1800   60.0725 
 365.1504   14.5079    0.5957  365.1362  195.9062    9.6250 7800.0000 -999.0000   28.8775 -999.0000 -999.0000 -999.0000 -999.0000    0.9634 -999.0000 -999.0000   -9.9900    3.0000    1.0000 -999.0000 -999.0000 -999.0000 -999.0000 -999.0000    1.1375    2.7144   -1.6958 -999.0000    1.1375 -999.0000 -999.0000 -999.0000    0.1800   59.8759 
 365.3028   14.5537    0.5957  365.2886  196.0586    9.6250 7800.0000 -999.0000   28.8854 -999.0000 -999.0000 -999.0000 -999.0000    0.9564 -999.0000 -999.0000   -9.9900    3.0000    1.0000 -999.0000 -999.0000 -999.0000 -999.0000 -999.0000    1.1407    2.7834   -1.8276 -999.0000    1.1407 -999.0000 -999.0000 -999.0000    0.1800   59.7405 
 365.4552   14.5996    0.5956  365.4410  196.2110    9.6250 7800.0000 -999.0000   28.8933 -999.0000 -999.0000 -999.0000 -999.0000    0.9574 -999.0000 -999.0000   -9.9900    3.0000    1.0000 -999.0000 -999.0000 -999.0000 -999.0000 -999.0000    1.2152    2.7454   -1.8101 -999.0000    1.2152 -999.0000 -999.0000 -999.0000    0.1800   59.7546 
 365.6076   14.6454    0.5956  365.5934  196.3634    9.6250 7800.0000 -999.0000   28.9012 -999.0000 -999.0000 -999.0000 -999.0000    0.9316 -999.0000 -999.0000   -9.9900    3.0000    1.0000 -999.0000 -999.0000 -999.0000 -999.0000 -999.0000    1.2834    2.5937   -2.2990 -999.0000    1.2834 -999.0000 -999.0000 -999.0000    0.1800   59.2622 
