~VERSION INFORMATION
 VERS.                 2.0:   CWLS LOG ASCII STANDARD - VERSION 2.0
 WRAP.                  NO:   SINGLE LINE PER DEPTH STEP
 CREA.                 01/24/2018 18:21:00
#CREATED USING IP VERSION 4.4.2017.271 BY STROBEJO ON 01/24/2018 18:21:00
~WELL INFORMATION
#MNEM.UNIT       DATA                          DESCRIPTION MNEMONIC
#---------      ---------------------------   --------------------------
 STRT    .M         0.0000                    : START DEPTH
 STOP    .M         1062.9900                 : STOP DEPTH
 STEP    .M         0.1524                    : STEP VALUE
 NULL    .      -999.0000                     : NULL VALUE
 DATE    .      01/24/2018                    : LAS file Creation Date
 WELL  .      Landau 172     : Well Name
 COM1  .      WH             : Well Comment
 COMP  .      Wintershall    : Company
 FLD   .      Landau         : Field
 STATE .      Rheinl.-Pfalz  : State
 COUNT .      Germany        : Country
 API   .      252449617201   : API Number
 UWI   .      252449617201   : Unique Well Identifier (UWI)
 LOC   .                     : Location
 LATI  .      5453494.46     : Latitude/Northing
 LONG  .      436438.29      : Longitude/Easting
 PDAT  .      Mean Sea Level : Permanent Datum
 EPDAT .      0.0000         : Elevation of Permanent Datum
 LGMEA .      GL             : Log Measured from
 DRMEA .      GL             : Drill Measured From
 APDAT .      169.23         : Elevation Above Permanent Datum
 GL    .      169.23         : GL Elevation
 RWS   .      0              : Def_Rw
 WST   .      0              : Def_Rwt
 UTMZ  .      32             : UTM Zone
 DATS  .      28.08.1977     : Spud Date
 COMD  .      15.09.1977     : Completion Date
 BHS   .      Producer - Oil : Completion Status
 CNTY  .      Landau/Pfalz   : County
 PROV  .                     : Province
 MDEC  .      0              : Magnetic Declination
 SRVC  .      SCH            : Contractor
~CURVE INFORMATION
#MNEM              UNIT       API CODE   Curve Type  Comments
#----------  --------------- ----------  ----------- -----------
 DEPTH      .M                         : Depth        
 HAZI       .Deg                       : Azimuth      
 HDEVI      .Deg                       : Deviation    
 TVD        .M                         : Depth        
 TVDSS      .M                         : Depth        
 BS         .inch                      : BitSize      
 Bsal       .ppm                       : BitSize      
 K_reg      .mD                        :              
 Temp       .C                         : Temp         
 PHIE       .Dec                       : Phi          
 PHIT       .Dec                       : PhiT         
 SW         .Dec                       : Sw           
 SXO        .Dec                       : Sxo          
 VCL        .Dec                       : Vcl          
 CGDN       .g/c3                      : CoreGD       
 CPERM      .md                        : CorePerm     
 CPOR       .v/v                       : CorePhi      
 Block      .                          :              
 Layer      .                          :              
 CALI       .IN                        : Caliper      Caliper
 GR         .GAPI                      : GammaRay     Gamma Ray
 MINV       .OHMM                      : MicroInvers  Micro-Inverse Resistivity
 MLL        .OHMM                      : MicroRes     Mll Resistivity
 MNOR       .OHMM                      : MicroNor     Micro-Normal Resistivity
 RD         .OHMM                      : DeepRes      Deep Induction Standard Processed Resistivity
 RS         .OHMM                      : ShalRes      Short Normal
 SP         .MV                        : SP           Spontaneous Potential
 RHOB       .G/C3                      : Density      Bulk Density
 LAT        .OHMM                      : DeepRes      Deep Induction Standard Processed Resistivity
 SIGM       .CU                        : sigma        5  RST Sigma
 TPHI       .m3/m3                     : tdt          6  RST Porosity
 SIGM       .CU                        : sigma        5  RST Sigma
 RW_25C     .                          :              
 SPbu       .MV                        : SP           Spontaneous Potential
~P IP parameters
#Name        Value                 Description
#----- --------------------------  -----------
#Logging Run 
 RUN  .     1                                           : Run Number
 DATE .     09/14/1977                                  : Date                      | RUN[0]
 BS   .     8                                           : Bit Size                  | RUN[1]
 DFT  .     /                                           : Type of Fluid in Hole     | RUN[1]
 DFD  .     1                                           : Mud Weight                | RUN[1]
 RMF  .     .82                                         : Rmf                       | RUN[1]
 MFST .     18                                          : at Meas Temp              | RUN[1]
 BHT  .     75                                          : BHT                       | RUN[1]
 TLAB .     ????/12/10                                  : Time at Bottom            | RUN[1]
 R1   .     Teufe korreliert an SLB-IEL vom 13.09.1977  : Remark 1                  | RUN[1]
 RW   .     1                                           : Rw                        | RUN[1]
 CSIZ .     7                                           : Casing Size               | RUN[1]
~A  DEPTH    HAZI     HDEVI      TVD      TVDSS       BS       Bsal     K_reg      Temp      PHIE      PHIT       SW       SXO       VCL       CGDN     CPERM      CPOR     Block     Layer      CALI       GR       MINV      MLL       MNOR       RD        RS        SP       RHOB      LAT       SIGM      TPHI      SIGM     RW_25C     SPbu   
# ...
 647.3952   68.9460    0.8972  647.3553  478.1253    9.6250 7800.0000    0.0100   43.4683    0.0001    0.3057    1.0000    1.0000    0.8731 -999.0000 -999.0000   -9.9900    3.0000    3.0000   10.2982   40.6566    1.2943    1.7265    1.1627    1.8292    2.9842   -1.7767    2.1572    1.8292   30.1549    0.4229   30.1549    0.1800   43.0893 
 647.5476   69.0060    0.8974  647.5076  478.2777    9.6250 7800.0000    0.0100   43.4761    0.0001    0.3125    1.0000    1.0000    0.8925 -999.0000 -999.0000   -9.9900    3.0000    3.0000    9.9664   43.3429    1.6675    2.0273    1.3623    1.8570    2.9147   -1.5050    2.1722    1.8570   31.6937    0.4416   31.6937    0.1800   43.3296 
 647.7000   69.0661    0.8975  647.6600  478.4300    9.6250 7800.0000    0.0100   43.4840    0.0001    0.3182    1.0000    1.0000    0.9089 -999.0000 -999.0000   -9.9900    3.0000    3.0000   10.0839   45.4847    1.4634    1.6862    1.6991    1.8562    2.8955   -1.2748    2.1892    1.8562   33.1604    0.4482   33.1604    0.1800   43.5283 
 647.8524   69.1262    0.8977  647.8124  478.5824    9.6250 7800.0000    0.0100   43.4919    0.0001    0.3076    1.0000    1.0000    0.8785 -999.0000 -999.0000   -9.9900    3.0000    3.0000   10.2196   46.0958    3.1504    3.5038    2.5100    1.8490    2.8994   -1.7007    2.2384    1.8490   32.7619    0.4272   32.7619    0.1800   43.0709 
 648.0048   69.1862    0.8978  647.9648  478.7348    9.6250 7800.0000    0.0100   43.4998    0.0001    0.2994    1.0000    1.0000    0.8553 -999.0000 -999.0000   -9.9900    3.0000    3.0000   10.4216   46.8194    1.3087    1.6041    1.8124    1.8200    2.9395   -2.0260    2.2472    1.8200   31.9380    0.4167   31.9380    0.1800   42.7141 
 648.1572   69.2462    0.8980  648.1172  478.8872    9.6250 7800.0000    0.0100   43.5077    0.0001    0.2992    1.0000    1.0000    0.8546 -999.0000 -999.0000   -9.9900    3.0000    3.0000   10.4720   45.5415    1.5370    2.0941    1.4321    1.8971    2.9905   -2.0352    2.2519    1.8971   30.6025    0.4127   30.6025    0.1800   42.6735 
 648.3096   69.3062    0.8981  648.2696  479.0396    9.6250 7800.0000    0.0100   43.5155    0.0001    0.3070    1.0000    1.0000    0.8767 -999.0000 -999.0000   -9.9900    3.0000    3.0000   10.4916   42.6894    3.5379    2.7337    2.1194    1.9226    3.0610   -1.7259    2.2696    1.9226   29.7141    0.4246   29.7141    0.1800   42.9513 
 648.4620   69.3661    0.8983  648.4219  479.1919    9.6250 7800.0000    0.0100   43.5234    0.0001    0.2967    1.0000    1.0000    0.8473 -999.0000 -999.0000   -9.9900    3.0000    3.0000   10.5705   39.3683    2.5742    4.2110    2.6497    2.0275    3.2055   -2.1377    2.3001    2.0275   29.4693    0.4332   29.4693    0.1800   42.5081 
 648.6144   69.4261    0.8985  648.5743  479.3443    9.6250 7800.0000    0.0100   43.5313    0.0001    0.2970    1.0000    1.0000    0.8484 -999.0000 -999.0000   -9.9900    3.0000    3.0000   10.6450   39.2498    1.6717    2.6351    1.9112    2.2883    3.4172   -2.1220    2.3279    2.2883   29.4433    0.4280   29.4433    0.1800   42.4923 
 648.7668   69.4860    0.8986  648.7267  479.4967    9.6250 7800.0000    0.0100   43.5392    0.0001    0.3089    1.0000    1.0000    0.8823 -999.0000 -999.0000   -9.9900    3.0000    3.0000   10.6932   40.9075    2.9095    3.8060    2.6281    2.4686    3.5316   -1.6474    2.3553    2.4686   29.3869    0.4168   29.3869    0.1800   42.9355 
 648.9192   69.5459    0.8988  648.8791  479.6491    9.6250 7800.0000    0.0100   43.5471    0.0001    0.2943    1.0000    1.0000    0.8407 -999.0000 -999.0000   -9.9900    3.0000    3.0000   10.6548   42.6492    3.0207    5.4470    2.6597    2.5780    3.6065   -2.2308    2.3572    2.5780   28.5501    0.3912   28.5501    0.1800   42.3205 
 649.0716   69.6058    0.8989  649.0315  479.8015    9.6250 7800.0000    0.0100   43.5549    0.0002    0.2851    1.0000    1.0000    0.8138 -999.0000 -999.0000   -9.9900    3.0000    3.0000   10.5330   44.3420    4.2066    4.9987    3.5679    2.6705    3.7513   -2.6061    2.3732    2.6705   27.3249    0.3646   27.3249    0.1800   41.9138 
 649.2240   69.6657    0.8991  649.1838  479.9538    9.6250 7800.0000    0.0100   43.5628    0.0001    0.2912    1.0000    1.0000    0.8316 -999.0000 -999.0000   -9.9900    3.0000    3.0000   10.3086   44.8678    2.4301    5.7830    3.1681    2.7525    4.0617   -2.3581    2.3981    2.7525   26.1593    0.3409   26.1593    0.1800   42.1304 
 649.3764   69.7255    0.8993  649.3362  480.1062    9.6250 7800.0000    0.0100   43.5707    0.0003    0.2797    1.0000    1.0000    0.7983 -999.0000 -999.0000   -9.9900    3.0000    3.0000   10.3470   44.5399    3.1143    3.1617    2.5299    2.7905    4.1401   -2.8244    2.3996    2.7905   24.9822    0.3294   24.9822    0.1800   41.6326 
 649.5288   69.7853    0.8994  649.4886  480.2586    9.6250 7800.0000    0.0100   43.5786    0.0017    0.2587    1.0000    1.0000    0.7342 -999.0000 -999.0000   -9.9900    3.0000    3.0000   10.3419   45.0847    4.3862    5.8381    3.5255    2.8124    4.3297   -3.7208    2.3923    2.8124   24.7909    0.3301   24.7909    0.1800   40.7047 
 649.6812   69.8451    0.8996  649.6410  480.4110    9.6250 7800.0000    0.0100   43.5864    0.0030    0.2510    1.0000    1.0000    0.7087 -999.0000 -999.0000   -9.9900    3.0000    3.0000   10.1627   44.5618    1.6816    2.8698    2.1129    2.8345    4.4851   -4.0778    2.3290    2.8345   24.8172    0.3351   24.8172    0.1800   40.3163 
 649.8336   69.9049    0.8997  649.7934  480.5634    9.6250 7800.0000    0.0100   43.5943    0.0027    0.2521    1.0000    1.0000    0.7126 -999.0000 -999.0000   -9.9900    3.0000    3.0000    9.9308   44.3163    3.9870    4.9687    3.7774    2.8566    4.4838   -4.0237    2.3017    2.8566   25.2932    0.3415   25.2932    0.1800   40.3389 
 649.9860   69.9646    0.8999  649.9457  480.7158    9.6250 7800.0000    0.0100   43.6022    0.0024    0.2540    1.0000    1.0000    0.7189 -999.0000 -999.0000   -9.9900    3.0000    3.0000    9.8951   43.9171    3.2103    5.3478    3.1130    2.8787    4.3597   -3.9355    2.2770    2.8787   25.6507    0.3500   25.6507    0.1800   40.3957 
 650.1384   70.0143    0.8997  650.0981  480.8681    9.6250 7800.0000    0.0100   43.6101    0.0013    0.2621    1.0000    1.0000    0.7451 -999.0000 -999.0000   -9.9900    3.0000    3.0000    9.8826   42.8974    1.5519    2.5167    1.9611    2.8791    4.2955   -3.5680    2.2711    2.8791   26.6929    0.3523   26.6929    0.1800   40.7317 
 650.2908   70.0496    0.8990  650.2505  481.0205    9.6250 7800.0000    0.0100   43.6180    0.0012    0.2630    1.0000    1.0000    0.7481 -999.0000 -999.0000   -9.9900    3.0000    3.0000   10.1840   42.8004    3.2382    4.9687    2.4701    2.8246    4.2027   -3.5267    2.2787    2.8246   26.9963    0.3590   26.9963    0.1800   40.7415 
 650.4432   70.0848    0.8984  650.4029  481.1729    9.6250 7800.0000    0.0100   43.6258    0.0012    0.2629    1.0000    1.0000    0.7476 -999.0000 -999.0000   -9.9900    3.0000    3.0000   10.5255   41.4104    3.5484    3.7025    2.6597    2.7339    4.1020   -3.5337    2.2913    2.7339   27.4970    0.3612   27.4970    0.1800   40.7031 
 650.5956   70.1201    0.8977  650.5553  481.3253    9.6250 7800.0000    0.0100   43.6337    0.0003    0.2840    1.0000    1.0000    0.8108 -999.0000 -999.0000   -9.9900    3.0000    3.0000   10.2461   40.6800    2.1485    7.2429    2.2211    2.6498    4.0506   -2.6494    2.3039    2.6498   27.3431    0.3689   27.3431    0.1800   41.5559 
 650.7480   70.1555    0.8970  650.7077  481.4777    9.6250 7800.0000    0.0100   43.6416    0.0001    0.3045    1.0000    1.0000    0.8697 -999.0000 -999.0000   -9.9900    3.0000    3.0000   10.6161   42.2319    1.0828    2.1329    1.4552    2.6305    3.9970   -1.8238    2.3135    2.6305   27.3981    0.3761   27.3981    0.1800   42.3501 
 650.9004   70.1909    0.8963  650.8600  481.6300    9.6250 7800.0000    0.0100   43.6495    0.0001    0.2998    1.0000    1.0000    0.8563 -999.0000 -999.0000   -9.9900    3.0000    3.0000   10.6284   41.9372    1.4820    2.3599    1.6901    2.6118    3.9421   -2.0117    2.2966    2.6118   27.2846    0.3875   27.2846    0.1800   42.1307 
