~VERSION INFORMATION
 VERS.                 2.0:   CWLS LOG ASCII STANDARD - VERSION 2.0
 WRAP.                  NO:   SINGLE LINE PER DEPTH STEP
 CREA.                 01/24/2018 18:21:00
#CREATED USING IP VERSION 4.4.2017.271 BY STROBEJO ON 01/24/2018 18:21:00
~WELL INFORMATION
#MNEM.UNIT       DATA                          DESCRIPTION MNEMONIC
#---------      ---------------------------   --------------------------
 STRT    .M         0.0000                    : START DEPTH
 STOP    .M         1062.9900                 : STOP DEPTH
 STEP    .M         0.1524                    : STEP VALUE
 NULL    .      -999.0000                     : NULL VALUE
 DATE    .      01/24/2018                    : LAS file Creation Date
 WELL  .      Landau 172     : Well Name
 COM1  .      WH             : Well Comment
 COMP  .      Wintershall    : Company
 FLD   .      Landau         : Field
 STATE .      Rheinl.-Pfalz  : State
 COUNT .      Germany        : Country
 API   .      252449617201   : API Number
 UWI   .      252449617201   : Unique Well Identifier (UWI)
 LOC   .                     : Location
 LATI  .      5453494.46     : Latitude/Northing
 LONG  .      436438.29      : Longitude/Easting
 PDAT  .      Mean Sea Level : Permanent Datum
 EPDAT .      0.0000         : Elevation of Permanent Datum
 LGMEA .      GL             : Log Measured from
 DRMEA .      GL             : Drill Measured From
 APDAT .      169.23         : Elevation Above Permanent Datum
 GL    .      169.23         : GL Elevation
 RWS   .      0              : Def_Rw
 WST   .      0              : Def_Rwt
 UTMZ  .      32             : UTM Zone
 DATS  .      28.08.1977     : Spud Date
 COMD  .      15.09.1977     : Completion Date
 BHS   .      Producer - Oil : Completion Status
 CNTY  .      Landau/Pfalz   : County
 PROV  .                     : Province
 MDEC  .      0              : Magnetic Declination
 SRVC  .      SCH            : Contractor
~CURVE INFORMATION
#MNEM              UNIT       API CODE   Curve Type  Comments
#----------  --------------- ----------  ----------- -----------
 DEPTH      .M                         : Depth        
 HAZI       .Deg                       : Azimuth      
 HDEVI      .Deg                       : Deviation    
 TVD        .M                         : Depth        
 TVDSS      .M                         : Depth        
 BS         .inch                      : BitSize      
 Bsal       .ppm                       : BitSize      
 K_reg      .mD                        :              
 Temp       .C                         : Temp         
 PHIE       .Dec                       : Phi          
 PHIT       .Dec                       : PhiT         
 SW         .Dec                       : Sw           
 SXO        .Dec                       : Sxo          
 VCL        .Dec                       : Vcl          
 CGDN       .g/c3                      : CoreGD       
 CPERM      .md                        : CorePerm     
 CPOR       .v/v                       : CorePhi      
 Block      .                          :              
 Layer      .                          :              
 CALI       .IN                        : Caliper      Caliper
 GR         .GAPI                      : GammaRay     Gamma Ray
 MINV       .OHMM                      : MicroInvers  Micro-Inverse Resistivity
 MLL        .OHMM                      : MicroRes     Mll Resistivity
 MNOR       .OHMM                      : MicroNor     Micro-Normal Resistivity
 RD         .OHMM                      : DeepRes      Deep Induction Standard Processed Resistivity
 RS         .OHMM                      : ShalRes      Short Normal
 SP         .MV                        : SP           Spontaneous Potential
 RHOB       .G/C3                      : Density      Bulk Density
 LAT        .OHMM                      : DeepRes      Deep Induction Standard Processed Resistivity
 SIGM       .CU                        : sigma        5  RST Sigma
 TPHI       .m3/m3                     : tdt          6  RST Porosity
 SIGM       .CU                        : sigma        5  RST Sigma
 RW_25C     .                          :              
 SPbu       .MV                        : SP           Spontaneous Potential
~P IP parameters
#Name        Value                 Description
#----- --------------------------  -----------
#Logging Run 
 RUN  .     1                                           : Run Number
 DATE .     09/14/1977                                  : Date                      | RUN[0]
 BS   .     8                                           : Bit Size                  | RUN[1]
 DFT  .     /                                           : Type of Fluid in Hole     | RUN[1]
 DFD  .     1                                           : Mud Weight                | RUN[1]
 RMF  .     .82                                         : Rmf                       | RUN[1]
 MFST .     18                                          : at Meas Temp              | RUN[1]
 BHT  .     75                                          : BHT                       | RUN[1]
 TLAB .     ????/12/10                                  : Time at Bottom            | RUN[1]
 R1   .     Teufe korreliert an SLB-IEL vom 13.09.1977  : Remark 1                  | RUN[1]
 RW   .     1                                           : Rw                        | RUN[1]
 CSIZ .     7                                           : Casing Size               | RUN[1]
~A  DEPTH    HAZI     HDEVI      TVD      TVDSS       BS       Bsal     K_reg      Temp      PHIE      PHIT       SW       SXO       VCL       CGDN     CPERM      CPOR     Block     Layer      CALI       GR       MINV      MLL       MNOR       RD        RS        SP       RHOB      LAT       SIGM      TPHI      SIGM     RW_25C     SPbu   
# ...
 936.3456   60.0000    1.0000  936.2666  767.0366    9.6250 7800.0000    0.0210   58.4050    0.0001    0.3205    1.0000    1.0000    0.9153 -999.0000 -999.0000   -9.9900    3.0000    4.0000   10.3205   44.6691    1.4621    2.5928    1.2325    2.0159    4.5261   -1.1859    2.2842    2.0159 -999.0000 -999.0000 -999.0000    0.1200   48.5537 
 936.4980   60.0000    1.0000  936.4190  767.1890    9.6250 7800.0000    0.0210   58.4129    0.0001    0.3237    1.0000    1.0000    0.9247 -999.0000 -999.0000   -9.9900    3.0000    4.0000   10.2641   48.3094    2.1607    2.8921    1.2824    2.0061    4.2555   -1.0543    2.3680    2.0061 -999.0000 -999.0000 -999.0000    0.1200   48.6484 
 936.6504   60.0000    1.0000  936.5713  767.3413    9.6250 7800.0000    0.0210   58.4207    0.0001    0.3258    1.0000    1.0000    0.9305 -999.0000 -999.0000   -9.9900    3.0000    4.0000   10.2425   50.2192    1.8576    3.8581    1.5619    1.9754    4.1304   -0.9725    2.3943    1.9754 -999.0000 -999.0000 -999.0000    0.1200   48.6932 
 936.8028   60.0000    1.0000  936.7237  767.4937    9.6250 7800.0000    0.0210   58.4286    0.0001    0.3272    1.0000    1.0000    0.9346 -999.0000 -999.0000   -9.9900    3.0000    4.0000   10.2449   49.3296    1.6218    2.5370    1.0429    1.9750    4.1610   -0.9156    2.3953    1.9750 -999.0000 -999.0000 -999.0000    0.1200   48.7132 
 936.9552   60.0000    1.0000  936.8761  767.6461    9.6250 7800.0000    0.0210   58.4365    0.0001    0.3333    1.0000    1.0000    0.9520 -999.0000 -999.0000   -9.9900    3.0000    4.0000   10.2448   47.5071    1.4621    3.2346    1.1861    1.9331    4.2018   -0.6721    2.4023    1.9331 -999.0000 -999.0000 -999.0000    0.1200   48.9198 
 937.1076   60.0000    1.0000  937.0285  767.7985    9.6250 7800.0000    0.0210   58.4444    0.0001    0.3334    1.0000    1.0000    0.9524 -999.0000 -999.0000   -9.9900    3.0000    4.0000   10.2426   45.9338    1.2226    2.4771    1.3638    1.9370    4.3040   -0.6664    2.4032    1.9370 -999.0000 -999.0000 -999.0000    0.1200   48.8886 
 937.2600   60.0000    1.0000  937.1809  767.9509    9.6250 7800.0000    0.0210   58.4523    0.0001    0.3245    1.0000    1.0000    0.9268 -999.0000 -999.0000   -9.9900    3.0000    4.0000   10.2634   45.2901    1.2625    2.6255    1.2525    2.0073    4.0866   -1.0245    2.4030    2.0073 -999.0000 -999.0000 -999.0000    0.1200   48.4936 
 937.4124   60.0000    1.0000  937.3332  768.1032    9.6250 7800.0000    0.0210   58.4601    0.0001    0.3210    1.0000    1.0000    0.9169 -999.0000 -999.0000   -9.9900    3.0000    4.0000   10.2648   46.6410    4.9850    6.0776    2.9990    2.0956    4.0156   -1.1640    2.4040    2.0956 -999.0000 -999.0000 -999.0000    0.1200   48.3172 
 937.5648   60.0000    1.0000  937.4856  768.2556    9.6250 7800.0000    0.0210   58.4680    0.0001    0.3215    1.0000    1.0000    0.9182 -999.0000 -999.0000   -9.9900    3.0000    4.0000   10.2609   45.7213    4.9850   31.3931    0.5539    2.2045    4.2351   -1.1458    2.4100    2.2045 -999.0000 -999.0000 -999.0000    0.1200   48.2985 
 937.7172   60.0000    1.0000  937.6380  768.4080    9.6250 7800.0000    0.0210   58.4759    0.0001    0.3173    1.0000    1.0000    0.9063 -999.0000 -999.0000   -9.9900    3.0000    4.0000   10.2393   42.9799    0.6682    2.4771    0.9720    2.3289    4.6061   -1.3124    2.4214    2.3289 -999.0000 -999.0000 -999.0000    0.1200   48.0949 
 937.8696   60.0000    1.0000  937.7904  768.5604    9.6250 7800.0000    0.0210   58.4838    0.0001    0.3186    1.0000    1.0000    0.9100 -999.0000 -999.0000   -9.9900    3.0000    4.0000   10.2026   41.3904    2.4026    2.9775    1.3523    2.3784    4.5377   -1.2597    2.4359    2.3784 -999.0000 -999.0000 -999.0000    0.1200   48.1108 
 938.0220   60.0000    1.0000  937.9427  768.7127    9.6250 7800.0000    0.0210   58.4916    0.0001    0.3153    1.0000    1.0000    0.9005 -999.0000 -999.0000   -9.9900    3.0000    4.0000   10.2052   42.5857    1.6417    4.8937    2.1806    2.3750    4.4977   -1.3924    2.3683    2.3750 -999.0000 -999.0000 -999.0000    0.1200   47.9411 
 938.1744   60.0000    1.0000  938.0951  768.8651    9.6250 7800.0000    0.0210   58.4995    0.0001    0.3107    1.0000    1.0000    0.8873 -999.0000 -999.0000   -9.9900    3.0000    4.0000   10.2044   44.1382    0.5339    4.5465    0.9531    2.3753    4.4820   -1.5776    2.3380    2.3753 -999.0000 -999.0000 -999.0000    0.1200   47.7190 
 938.3268   60.0000    1.0000  938.2475  769.0175    9.6250 7800.0000    0.0210   58.5074    0.0001    0.3017    1.0000    1.0000    0.8616 -999.0000 -999.0000   -9.9900    3.0000    4.0000   10.2067   43.7596    1.9711    2.6909    1.6223    2.3752    4.3718   -1.9374    2.3618    2.3752 -999.0000 -999.0000 -999.0000    0.1200   47.3223 
 938.4792   60.0000    1.0000  938.3999  769.1699    9.6250 7800.0000    0.0210   58.5153    0.0001    0.2976    1.0000    1.0000    0.8500 -999.0000 -999.0000   -9.9900    3.0000    4.0000   10.1860   43.3001    1.4122    3.8881    2.1307    2.3752    4.3326   -2.0998    2.3680    2.3752 -999.0000 -999.0000 -999.0000    0.1200   47.1230 
 938.6316   60.0000    1.0000  938.5522  769.3222    9.6250 7800.0000    0.0210   58.5232    0.0001    0.3035    1.0000    1.0000    0.8669 -999.0000 -999.0000   -9.9900    3.0000    4.0000   10.1842   43.5452    0.8733   14.2291    0.9631    2.3764    4.3320   -1.8634    2.2815    2.3764 -999.0000 -999.0000 -999.0000    0.1200   47.3225 
 938.7840   60.0000    1.0000  938.7046  769.4746    9.6250 7800.0000    0.0210   58.5310    0.0001    0.3041    1.0000    1.0000    0.8687 -999.0000 -999.0000   -9.9900    3.0000    4.0000   10.2065   44.3288    2.6198    4.5048    2.2559    2.3437    4.2525   -1.8383    2.2559    2.3437 -999.0000 -999.0000 -999.0000    0.1200   47.3107 
 938.9364   60.0000    1.0000  938.8570  769.6270    9.6250 7800.0000    0.0210   58.5389    0.0001    0.3037    1.0000    1.0000    0.8676 -999.0000 -999.0000   -9.9900    3.0000    4.0000   10.2246   46.1694    1.3338    1.0922    1.6533    2.2947    4.2438   -1.8541    2.2905    2.2947 -999.0000 -999.0000 -999.0000    0.1200   47.2580 
 939.0888   60.0000    1.0000  939.0094  769.7794    9.6250 7800.0000    0.0210   58.5468    0.0001    0.3009    1.0000    1.0000    0.8595 -999.0000 -999.0000   -9.9900    3.0000    4.0000   10.2513   47.1587    0.3244    1.1756    0.7400    2.1838    4.4572   -1.9664    2.1642    2.1838 -999.0000 -999.0000 -999.0000    0.1200   47.1088 
 939.2412   60.0000    1.0000  939.1617  769.9318    9.6250 7800.0000    0.0210   58.5547    0.0001    0.2953    1.0000    1.0000    0.8435 -999.0000 -999.0000   -9.9900    3.0000    4.0000   10.3238   47.3987    0.2944    1.8173    0.7934    2.1227    4.3694   -2.1904    2.1113    2.1227 -999.0000 -999.0000 -999.0000    0.1200   46.8479 
 939.3936   60.0000    1.0000  939.3141  770.0841    9.6250 7800.0000    0.0210   58.5625    0.0001    0.2962    1.0000    1.0000    0.8459 -999.0000 -999.0000   -9.9900    3.0000    4.0000   11.0770   45.8407    0.6637    2.1976    0.6437    2.0952    4.2104   -2.1574    2.0025    2.0952 -999.0000 -999.0000 -999.0000    0.1200   46.8439 
 939.5460   60.0000    1.0000  939.4665  770.2365    9.6250 7800.0000    0.0210   58.5704    0.0001    0.3074    1.0000    1.0000    0.8780 -999.0000 -999.0000   -9.9900    3.0000    4.0000   12.0231   44.5462    0.3044    1.0975    1.0429    2.0959    4.0884   -1.7087    2.0021    2.0959 -999.0000 -999.0000 -999.0000    0.1200   47.2558 
 939.6984   60.0000    1.0000  939.6189  770.3889    9.6250 7800.0000    0.0210   58.5783    0.0001    0.3101    1.0000    1.0000    0.8857 -999.0000 -999.0000   -9.9900    3.0000    4.0000   12.1711   44.1350    0.4715    0.9514    0.7036    2.0948    4.1020   -1.6002    1.9957    2.0948 -999.0000 -999.0000 -999.0000    0.1200   47.3274 
 939.8508   60.0000    1.0000  939.7713  770.5413    9.6250 7800.0000    0.0210   58.5862    0.0001    0.3214    1.0000    1.0000    0.9181 -999.0000 -999.0000   -9.9900    3.0000    4.0000   12.0550   41.6625    0.8466    0.9962    0.5439    2.1260    4.1895   -1.1462    2.0799    2.1260 -999.0000 -999.0000 -999.0000    0.1200   47.7444 
