~VERSION INFORMATION
 VERS.                 2.0:   CWLS LOG ASCII STANDARD - VERSION 2.0
 WRAP.                  NO:   SINGLE LINE PER DEPTH STEP
 CREA.                 01/24/2018 18:21:00
#CREATED USING IP VERSION 4.4.2017.271 BY STROBEJO ON 01/24/2018 18:21:00
~WELL INFORMATION
#MNEM.UNIT       DATA                          DESCRIPTION MNEMONIC
#---------      ---------------------------   --------------------------
 STRT    .M         0.0000                    : START DEPTH
 STOP    .M         1062.9900                 : STOP DEPTH
 STEP    .M         0.1524                    : STEP VALUE
 NULL    .      -999.0000                     : NULL VALUE
 DATE    .      01/24/2018                    : LAS file Creation Date
 WELL  .      Landau 172     : Well Name
 COM1  .      WH             : Well Comment
 COMP  .      Wintershall    : Company
 FLD   .      Landau         : Field
 STATE .      Rheinl.-Pfalz  : State
 COUNT .      Germany        : Country
 API   .      252449617201   : API Number
 UWI   .      252449617201   : Unique Well Identifier (UWI)
 LOC   .                     : Location
 LATI  .      5453494.46     : Latitude/Northing
 LONG  .      436438.29      : Longitude/Easting
 PDAT  .      Mean Sea Level : Permanent Datum
 EPDAT .      0.0000         : Elevation of Permanent Datum
 LGMEA .      GL             : Log Measured from
 DRMEA .      GL             : Drill Measured From
 APDAT .      169.23         : Elevation Above Permanent Datum
 GL    .      169.23         : GL Elevation
 RWS   .      0              : Def_Rw
 WST   .      0              : Def_Rwt
 UTMZ  .      32             : UTM Zone
 DATS  .      28.08.1977     : Spud Date
 COMD  .      15.09.1977     : Completion Date
 BHS   .      Producer - Oil : Completion Status
 CNTY  .      Landau/Pfalz   : County
 PROV  .                     : Province
 MDEC  .      0              : Magnetic Declination
 SRVC  .      SCH            : Contractor
~CURVE INFORMATION
#MNEM              UNIT       API CODE   Curve Type  Comments
#----------  --------------- ----------  ----------- -----------
 DEPTH      .M                         : Depth        
 HAZI       .Deg                       : Azimuth      
 HDEVI      .Deg                       : Deviation    
 TVD        .M                         : Depth        
 TVDSS      .M                         : Depth        
 BS         .inch                      : BitSize      
 Bsal       .ppm                       : BitSize      
 K_reg      .mD                        :              
 Temp       .C                         : Temp         
 PHIE       .Dec                       : Phi          
 PHIT       .Dec                       : PhiT         
 SW         .Dec                       : Sw           
 SXO        .Dec                       : Sxo          
 VCL        .Dec                       : Vcl          
 CGDN       .g/c3                      : CoreGD       
 CPERM      .md                        : CorePerm     
 CPOR       .v/v                       : CorePhi      
 Block      .                          :              
 Layer      .                          :              
 CALI       .IN                        : Caliper      Caliper
 GR         .GAPI                      : GammaRay     Gamma Ray
 MINV       .OHMM                      : MicroInvers  Micro-Inverse Resistivity
 MLL        .OHMM                      : MicroRes     Mll Resistivity
 MNOR       .OHMM                      : MicroNor     Micro-Normal Resistivity
 RD         .OHMM                      : DeepRes      Deep Induction Standard Processed Resistivity
 RS         .OHMM                      : ShalRes      Short Normal
 SP         .MV                        : SP           Spontaneous Potential
 RHOB       .G/C3                      : Density      Bulk Density
 LAT        .OHMM                      : DeepRes      Deep Induction Standard Processed Resistivity
 SIGM       .CU                        : sigma        5  RST Sigma
 TPHI       .m3/m3                     : tdt          6  RST Porosity
 SIGM       .CU                        : sigma        5  RST Sigma
 RW_25C     .                          :              
 SPbu       .MV                        : SP           Spontaneous Potential
~P IP parameters
#Name        Value                 Description
#----- --------------------------  -----------
#Logging Run 
 RUN  .     1                                           : Run Number
 DATE .     09/14/1977                                  : Date                      | RUN[0]
 BS   .     8                                           : Bit Size                  | RUN[1]
 DFT  .     /                                           : Type of Fluid in Hole     | RUN[1]
 DFD  .     1                                           : Mud Weight                | RUN[1]
 RMF  .     .82                                         : Rmf                       | RUN[1]
 MFST .     18                                          : at Meas Temp              | RUN[1]
 BHT  .     75                                          : BHT                       | RUN[1]
 TLAB .     ????/12/10                                  : Time at Bottom            | RUN[1]
 R1   .     Teufe korreliert an SLB-IEL vom 13.09.1977  : Remark 1                  | RUN[1]
 RW   .     1                                           : Rw                        | RUN[1]
 CSIZ .     7                                           : Casing Size               | RUN[1]
~A  DEPTH    HAZI     HDEVI      TVD      TVDSS       BS       Bsal     K_reg      Temp      PHIE      PHIT       SW       SXO       VCL       CGDN     CPERM      CPOR     Block     Layer      CALI       GR       MINV      MLL       MNOR       RD        RS        SP       RHOB      LAT       SIGM      TPHI      SIGM     RW_25C     SPbu   
# ...
 190.1952  352.4616    0.5774  190.1915   20.9615    9.6250 7800.0000 -999.0000   19.8329 -999.0000 -999.0000 -999.0000 -999.0000    0.8954 -999.0000 -999.0000   -9.9900    3.0000    1.0000 -999.0000 -999.0000 -999.0000 -999.0000 -999.0000    5.7966    9.1621   -2.9880 -999.0000    5.7966 -999.0000 -999.0000 -999.0000    0.1800   61.6482 
 190.3476  352.5023    0.5778  190.3439   21.1139    9.6250 7800.0000 -999.0000   19.8408 -999.0000 -999.0000 -999.0000 -999.0000    0.8952 -999.0000 -999.0000   -9.9900    3.0000    1.0000 -999.0000 -999.0000 -999.0000 -999.0000 -999.0000    5.9727    9.2416   -2.9912 -999.0000    5.9727 -999.0000 -999.0000 -999.0000    0.1800   61.6549 
 190.5000  352.5428    0.5781  190.4963   21.2663    9.6250 7800.0000 -999.0000   19.8487 -999.0000 -999.0000 -999.0000 -999.0000    0.8947 -999.0000 -999.0000   -9.9900    3.0000    1.0000 -999.0000 -999.0000 -999.0000 -999.0000 -999.0000    6.2390    9.3205   -3.0005 -999.0000    6.2390 -999.0000 -999.0000 -999.0000    0.1800   61.6554 
 190.6524  352.5834    0.5785  190.6487   21.4187    9.6250 7800.0000 -999.0000   19.8565 -999.0000 -999.0000 -999.0000 -999.0000    0.8919 -999.0000 -999.0000   -9.9900    3.0000    1.0000 -999.0000 -999.0000 -999.0000 -999.0000 -999.0000    6.4396    9.4123   -3.0543 -999.0000    6.4396 -999.0000 -999.0000 -999.0000    0.1800   61.6114 
 190.8048  352.6239    0.5788  190.8011   21.5711    9.6250 7800.0000 -999.0000   19.8644 -999.0000 -999.0000 -999.0000 -999.0000    0.8934 -999.0000 -999.0000   -9.9900    3.0000    1.0000 -999.0000 -999.0000 -999.0000 -999.0000 -999.0000    6.6059    9.5642   -3.0251 -999.0000    6.6059 -999.0000 -999.0000 -999.0000    0.1800   61.6504 
 190.9572  352.6643    0.5791  190.9535   21.7235    9.6250 7800.0000 -999.0000   19.8723 -999.0000 -999.0000 -999.0000 -999.0000    0.9031 -999.0000 -999.0000   -9.9900    3.0000    1.0000 -999.0000 -999.0000 -999.0000 -999.0000 -999.0000    6.7041    9.7170   -2.8406 -999.0000    6.7041 -999.0000 -999.0000 -999.0000    0.1800   61.8446 
 191.1096  352.7047    0.5795  191.1059   21.8759    9.6250 7800.0000 -999.0000   19.8802 -999.0000 -999.0000 -999.0000 -999.0000    0.9029 -999.0000 -999.0000   -9.9900    3.0000    1.0000 -999.0000 -999.0000 -999.0000 -999.0000 -999.0000    6.7336    9.6753   -2.8448 -999.0000    6.7336 -999.0000 -999.0000 -999.0000    0.1800   61.8503 
 191.2620  352.7451    0.5798  191.2583   22.0283    9.6250 7800.0000 -999.0000   19.8881 -999.0000 -999.0000 -999.0000 -999.0000    0.9104 -999.0000 -999.0000   -9.9900    3.0000    1.0000 -999.0000 -999.0000 -999.0000 -999.0000 -999.0000    6.6369    9.5968   -2.7026 -999.0000    6.6369 -999.0000 -999.0000 -999.0000    0.1800   62.0023 
 191.4144  352.7854    0.5802  191.4107   22.1807    9.6250 7800.0000 -999.0000   19.8959 -999.0000 -999.0000 -999.0000 -999.0000    0.9127 -999.0000 -999.0000   -9.9900    3.0000    1.0000 -999.0000 -999.0000 -999.0000 -999.0000 -999.0000    6.5042    9.4878   -2.6582 -999.0000    6.5042 -999.0000 -999.0000 -999.0000    0.1800   62.0566 
 191.5668  352.8257    0.5805  191.5631   22.3331    9.6250 7800.0000 -999.0000   19.9038 -999.0000 -999.0000 -999.0000 -999.0000    0.9113 -999.0000 -999.0000   -9.9900    3.0000    1.0000 -999.0000 -999.0000 -999.0000 -999.0000 -999.0000    6.3550    9.5244   -2.6862 -999.0000    6.3550 -999.0000 -999.0000 -999.0000    0.1800   62.0383 
 191.7192  352.8659    0.5808  191.7155   22.4855    9.6250 7800.0000 -999.0000   19.9117 -999.0000 -999.0000 -999.0000 -999.0000    0.9218 -999.0000 -999.0000   -9.9900    3.0000    1.0000 -999.0000 -999.0000 -999.0000 -999.0000 -999.0000    6.2045    9.5238   -2.4854 -999.0000    6.2045 -999.0000 -999.0000 -999.0000    0.1800   62.2489 
 191.8716  352.9061    0.5812  191.8678   22.6378    9.6250 7800.0000 -999.0000   19.9196 -999.0000 -999.0000 -999.0000 -999.0000    0.9197 -999.0000 -999.0000   -9.9900    3.0000    1.0000 -999.0000 -999.0000 -999.0000 -999.0000 -999.0000    6.0473    9.3909   -2.5250 -999.0000    6.0473 -999.0000 -999.0000 -999.0000    0.1800   62.2192 
 192.0240  352.9462    0.5815  192.0202   22.7902    9.6250 7800.0000 -999.0000   19.9274 -999.0000 -999.0000 -999.0000 -999.0000    0.9301 -999.0000 -999.0000   -9.9900    3.0000    1.0000 -999.0000 -999.0000 -999.0000 -999.0000 -999.0000    5.9261    9.2292   -2.3276 -999.0000    5.9261 -999.0000 -999.0000 -999.0000    0.1800   62.4264 
 192.1764  352.9863    0.5819  192.1726   22.9426    9.6250 7800.0000 -999.0000   19.9353 -999.0000 -999.0000 -999.0000 -999.0000    0.9355 -999.0000 -999.0000   -9.9900    3.0000    1.0000 -999.0000 -999.0000 -999.0000 -999.0000 -999.0000    5.8586    9.0827   -2.2247 -999.0000    5.8586 -999.0000 -999.0000 -999.0000    0.1800   62.5391 
 192.3288  353.0263    0.5822  192.3250   23.0950    9.6250 7800.0000 -999.0000   19.9432 -999.0000 -999.0000 -999.0000 -999.0000    0.9424 -999.0000 -999.0000   -9.9900    3.0000    1.0000 -999.0000 -999.0000 -999.0000 -999.0000 -999.0000    5.8100    8.9479   -2.0945 -999.0000    5.8100 -999.0000 -999.0000 -999.0000    0.1800   62.6791 
 192.4812  353.0663    0.5826  192.4774   23.2474    9.6250 7800.0000 -999.0000   19.9511 -999.0000 -999.0000 -999.0000 -999.0000    0.9614 -999.0000 -999.0000   -9.9900    3.0000    1.0000 -999.0000 -999.0000 -999.0000 -999.0000 -999.0000    5.8415    8.8789   -1.7327 -999.0000    5.8415 -999.0000 -999.0000 -999.0000    0.1800   63.0507 
 192.6336  353.1062    0.5829  192.6298   23.3998    9.6250 7800.0000 -999.0000   19.9590 -999.0000 -999.0000 -999.0000 -999.0000    0.9582 -999.0000 -999.0000   -9.9900    3.0000    1.0000 -999.0000 -999.0000 -999.0000 -999.0000 -999.0000    5.8833    8.8805   -1.7950 -999.0000    5.8833 -999.0000 -999.0000 -999.0000    0.1800   62.9982 
 192.7860  353.1461    0.5832  192.7822   23.5522    9.6250 7800.0000 -999.0000   19.9668 -999.0000 -999.0000 -999.0000 -999.0000    0.9301 -999.0000 -999.0000   -9.9900    3.0000    1.0000 -999.0000 -999.0000 -999.0000 -999.0000 -999.0000    5.9431    9.0646   -2.3290 -999.0000    5.9431 -999.0000 -999.0000 -999.0000    0.1800   62.4740 
 192.9384  353.1859    0.5836  192.9346   23.7046    9.6250 7800.0000 -999.0000   19.9747 -999.0000 -999.0000 -999.0000 -999.0000    0.9195 -999.0000 -999.0000   -9.9900    3.0000    1.0000 -999.0000 -999.0000 -999.0000 -999.0000 -999.0000    6.1180    9.3101   -2.5303 -999.0000    6.1180 -999.0000 -999.0000 -999.0000    0.1800   62.2826 
 193.0908  353.2257    0.5839  193.0870   23.8570    9.6250 7800.0000 -999.0000   19.9826 -999.0000 -999.0000 -999.0000 -999.0000    0.9291 -999.0000 -999.0000   -9.9900    3.0000    1.0000 -999.0000 -999.0000 -999.0000 -999.0000 -999.0000    6.2957    9.5213   -2.3474 -999.0000    6.2957 -999.0000 -999.0000 -999.0000    0.1800   62.4753 
 193.2432  353.2655    0.5843  193.2394   24.0094    9.6250 7800.0000 -999.0000   19.9905 -999.0000 -999.0000 -999.0000 -999.0000    0.9087 -999.0000 -999.0000   -9.9900    3.0000    1.0000 -999.0000 -999.0000 -999.0000 -999.0000 -999.0000    6.4895    9.6806   -2.7346 -999.0000    6.4895 -999.0000 -999.0000 -999.0000    0.1800   62.0979 
 193.3956  353.3052    0.5846  193.3918   24.1618    9.6250 7800.0000 -999.0000   19.9984 -999.0000 -999.0000 -999.0000 -999.0000    0.8952 -999.0000 -999.0000   -9.9900    3.0000    1.0000 -999.0000 -999.0000 -999.0000 -999.0000 -999.0000    6.5566    9.7608   -2.9903 -999.0000    6.5566 -999.0000 -999.0000 -999.0000    0.1800   61.8520 
 193.5480  353.3448    0.5850  193.5442   24.3142    9.6250 7800.0000 -999.0000   20.0062 -999.0000 -999.0000 -999.0000 -999.0000    0.8769 -999.0000 -999.0000   -9.9900    3.0000    1.0000 -999.0000 -999.0000 -999.0000 -999.0000 -999.0000    6.5926    9.9337   -3.3395 -999.0000    6.5926 -999.0000 -999.0000 -999.0000    0.1800   61.5126 
 193.7004  353.3844    0.5853  193.6965   24.4666    9.6250 7800.0000 -999.0000   20.0141 -999.0000 -999.0000 -999.0000 -999.0000    0.8723 -999.0000 -999.0000   -9.9900    3.0000    1.0000 -999.0000 -999.0000 -999.0000 -999.0000 -999.0000    6.6071    9.9985   -3.4264 -999.0000    6.6071 -999.0000 -999.0000 -999.0000    0.1800   61.4355 
