~VERSION INFORMATION
 VERS.                 2.0:   CWLS LOG ASCII STANDARD - VERSION 2.0
 WRAP.                  NO:   SINGLE LINE PER DEPTH STEP
 CREA.                 01/24/2018 18:21:00
#CREATED USING IP VERSION 4.4.2017.271 BY STROBEJO ON 01/24/2018 18:21:00
~WELL INFORMATION
#MNEM.UNIT       DATA                          DESCRIPTION MNEMONIC
#---------      ---------------------------   --------------------------
 STRT    .M         0.0000                    : START DEPTH
 STOP    .M         1062.9900                 : STOP DEPTH
 STEP    .M         0.1524                    : STEP VALUE
 NULL    .      -999.0000                     : NULL VALUE
 DATE    .      01/24/2018                    : LAS file Creation Date
 WELL  .      Landau 172     : Well Name
 COM1  .      WH             : Well Comment
 COMP  .      Wintershall    : Company
 FLD   .      Landau         : Field
 STATE .      Rheinl.-Pfalz  : State
 COUNT .      Germany        : Country
 API   .      252449617201   : API Number
 UWI   .      252449617201   : Unique Well Identifier (UWI)
 LOC   .                     : Location
 LATI  .      5453494.46     : Latitude/Northing
 LONG  .      436438.29      : Longitude/Easting
 PDAT  .      Mean Sea Level : Permanent Datum
 EPDAT .      0.0000         : Elevation of Permanent Datum
 LGMEA .      GL             : Log Measured from
 DRMEA .      GL             : Drill Measured From
 APDAT .      169.23         : Elevation Above Permanent Datum
 GL    .      169.23         : GL Elevation
 RWS   .      0              : Def_Rw
 WST   .      0              : Def_Rwt
 UTMZ  .      32             : UTM Zone
 DATS  .      28.08.1977     : Spud Date
 COMD  .      15.09.1977     : Completion Date
 BHS   .      Producer - Oil : Completion Status
 CNTY  .      Landau/Pfalz   : County
 PROV  .                     : Province
 MDEC  .      0              : Magnetic Declination
 SRVC  .      SCH            : Contractor
~CURVE INFORMATION
#MNEM              UNIT       API CODE   Curve Type  Comments
#----------  --------------- ----------  ----------- -----------
 DEPTH      .M                         : Depth        
 HAZI       .Deg                       : Azimuth      
 HDEVI      .Deg                       : Deviation    
 TVD        .M                         : Depth        
 TVDSS      .M                         : Depth        
 BS         .inch                      : BitSize      
 Bsal       .ppm                       : BitSize      
 K_reg      .mD                        :              
 Temp       .C                         : Temp         
 PHIE       .Dec                       : Phi          
 PHIT       .Dec                       : PhiT         
 SW         .Dec                       : Sw           
 SXO        .Dec                       : Sxo          
 VCL        .Dec                       : Vcl          
 CGDN       .g/c3                      : CoreGD       
 CPERM      .md                        : CorePerm     
 CPOR       .v/v                       : CorePhi      
 Block      .                          :              
 Layer      .                          :              
 CALI       .IN                        : Caliper      Caliper
 GR         .GAPI                      : GammaRay     Gamma Ray
 MINV       .OHMM                      : MicroInvers  Micro-Inverse Resistivity
 MLL        .OHMM                      : MicroRes     Mll Resistivity
 MNOR       .OHMM                      : MicroNor     Micro-Normal Resistivity
 RD         .OHMM                      : DeepRes      Deep Induction Standard Processed Resistivity
 RS         .OHMM                      : ShalRes      Short Normal
 SP         .MV                        : SP           Spontaneous Potential
 RHOB       .G/C3                      : Density      Bulk Density
 LAT        .OHMM                      : DeepRes      Deep Induction Standard Processed Resistivity
 SIGM       .CU                        : sigma        5  RST Sigma
 TPHI       .m3/m3                     : tdt          6  RST Porosity
 SIGM       .CU                        : sigma        5  RST Sigma
 RW_25C     .                          :              
 SPbu       .MV                        : SP           Spontaneous Potential
~P IP parameters
#Name        Value                 Description
#----- --------------------------  -----------
#Logging Run 
 RUN  .     1                                           : Run Number
 DATE .     09/14/1977                                  : Date                      | RUN[0]
 BS   .     8                                           : Bit Size                  | RUN[1]
 DFT  .     /                                           : Type of Fluid in Hole     | RUN[1]
 DFD  .     1                                           : Mud Weight                | RUN[1]
 RMF  .     .82                                         : Rmf                       | RUN[1]
 MFST .     18                                          : at Meas Temp              | RUN[1]
 BHT  .     75                                          : BHT                       | RUN[1]
 TLAB .     ????/12/10                                  : Time at Bottom            | RUN[1]
 R1   .     Teufe korreliert an SLB-IEL vom 13.09.1977  : Remark 1                  | RUN[1]
 RW   .     1                                           : Rw                        | RUN[1]
 CSIZ .     7                                           : Casing Size               | RUN[1]
~A  DEPTH    HAZI     HDEVI      TVD      TVDSS       BS       Bsal     K_reg      Temp      PHIE      PHIT       SW       SXO       VCL       CGDN     CPERM      CPOR     Block     Layer      CALI       GR       MINV      MLL       MNOR       RD        RS        SP       RHOB      LAT       SIGM      TPHI      SIGM     RW_25C     SPbu   
# ...
 475.4880   37.8976    0.7010  475.4675  306.2376    9.6250 7800.0000 -999.0000   34.5817 -999.0000 -999.0000 -999.0000 -999.0000    0.8921 -999.0000 -999.0000   -9.9900    3.0000    2.0000 -999.0000   58.5470 -999.0000 -999.0000 -999.0000    1.2119    1.8482   -2.8279 -999.0000    1.2119   33.3284    0.5079   33.3284    0.1800   64.8556 
 475.6404   37.9125    0.7016  475.6199  306.3899    9.6250 7800.0000 -999.0000   34.5896 -999.0000 -999.0000 -999.0000 -999.0000    0.9246 -999.0000 -999.0000   -9.9900    3.0000    2.0000 -999.0000   59.5868 -999.0000 -999.0000 -999.0000    1.2026    1.8645   -2.3126 -999.0000    1.2026   33.0656    0.5080   33.0656    0.1800   65.3814 
 475.7928   37.9273    0.7022  475.7723  306.5423    9.6250 7800.0000 -999.0000   34.5974 -999.0000 -999.0000 -999.0000 -999.0000    0.8926 -999.0000 -999.0000   -9.9900    3.0000    2.0000 -999.0000   58.5640 -999.0000 -999.0000 -999.0000    1.1834    1.8639   -2.0953 -999.0000    1.1834   32.4200    0.5062   32.4200    0.1800   65.6091 
 475.9452   37.9421    0.7028  475.9247  306.6947    9.6250 7800.0000 -999.0000   34.6053 -999.0000 -999.0000 -999.0000 -999.0000    0.8773 -999.0000 -999.0000   -9.9900    3.0000    2.0000 -999.0000   58.0738 -999.0000 -999.0000 -999.0000    1.1776    1.8819   -2.0608 -999.0000    1.1776   32.1511    0.5065   32.1511    0.1800   65.6541 
 476.0976   37.9569    0.7034  476.0771  306.8471    9.6250 7800.0000 -999.0000   34.6132 -999.0000 -999.0000 -999.0000 -999.0000    0.8192 -999.0000 -999.0000   -9.9900    3.0000    2.0000 -999.0000   56.2141 -999.0000 -999.0000 -999.0000    1.1776    1.8981   -1.5393 -999.0000    1.1776   31.9557    0.5042   31.9557    0.1800   66.1861 
 476.2500   37.9716    0.7040  476.2295  306.9995    9.6250 7800.0000 -999.0000   34.6211 -999.0000 -999.0000 -999.0000 -999.0000    0.7622 -999.0000 -999.0000   -9.9900    3.0000    2.0000 -999.0000   54.3915 -999.0000 -999.0000 -999.0000    1.1777    1.9043   -1.0206 -999.0000    1.1777   32.1795    0.5034   32.1795    0.1800   66.7153 
 476.4024   37.9864    0.7047  476.3819  307.1519    9.6250 7800.0000 -999.0000   34.6289 -999.0000 -999.0000 -999.0000 -999.0000    0.7562 -999.0000 -999.0000   -9.9900    3.0000    2.0000 -999.0000   54.1970 -999.0000 -999.0000 -999.0000    1.1778    1.8697   -1.3212 -999.0000    1.1778   31.6791    0.5028   31.6791    0.1800   66.4252 
 476.5548   38.0011    0.7053  476.5343  307.3043    9.6250 7800.0000 -999.0000   34.6368 -999.0000 -999.0000 -999.0000 -999.0000    0.7255 -999.0000 -999.0000   -9.9900    3.0000    2.0000 -999.0000   53.2164 -999.0000 -999.0000 -999.0000    1.1748    1.8250   -1.3278 -999.0000    1.1748   31.5930    0.5030   31.5930    0.1800   66.4291 
 476.7072   38.0157    0.7059  476.6867  307.4567    9.6250 7800.0000 -999.0000   34.6447 -999.0000 -999.0000 -999.0000 -999.0000    0.7893 -999.0000 -999.0000   -9.9900    3.0000    2.0000 -999.0000   55.2579 -999.0000 -999.0000 -999.0000    1.1513    1.7792   -1.5354 -999.0000    1.1513   31.7689    0.5032   31.7689    0.1800   66.2319 
 476.8596   38.0304    0.7065  476.8390  307.6090    9.6250 7800.0000 -999.0000   34.6526 -999.0000 -999.0000 -999.0000 -999.0000    0.8969 -999.0000 -999.0000   -9.9900    3.0000    2.0000 -999.0000   58.7022 -999.0000 -999.0000 -999.0000    1.1275    1.7330   -1.9957 -999.0000    1.1275   31.6749    0.5041   31.6749    0.1800   65.7821 
 477.0120   38.0450    0.7071  476.9914  307.7614    9.6250 7800.0000 -999.0000   34.6605 -999.0000 -999.0000 -999.0000 -999.0000    0.9534 -999.0000 -999.0000   -9.9900    3.0000    2.0000 -999.0000   60.5089 -999.0000 -999.0000 -999.0000    1.0445    1.6894   -2.1645 -999.0000    1.0445   32.1854    0.5054   32.1854    0.1800   65.6238 
 477.1644   38.0596    0.7077  477.1438  307.9138    9.6250 7800.0000 -999.0000   34.6683 -999.0000 -999.0000 -999.0000 -999.0000    0.9941 -999.0000 -999.0000   -9.9900    3.0000    2.0000 -999.0000   61.8106 -999.0000 -999.0000 -999.0000    1.0168    1.6876   -1.6178 -999.0000    1.0168   32.5011    0.5047   32.5011    0.1800   66.1810 
 477.3168   38.0742    0.7083  477.2962  308.0662    9.6250 7800.0000 -999.0000   34.6762 -999.0000 -999.0000 -999.0000 -999.0000    1.0000 -999.0000 -999.0000   -9.9900    3.0000    2.0000 -999.0000   62.0868 -999.0000 -999.0000 -999.0000    1.0571    1.7267   -1.3930 -999.0000    1.0571   33.4485    0.5036   33.4485    0.1800   66.4163 
 477.4692   38.0887    0.7089  477.4486  308.2186    9.6250 7800.0000 -999.0000   34.6841 -999.0000 -999.0000 -999.0000 -999.0000    1.0000 -999.0000 -999.0000   -9.9900    3.0000    2.0000 -999.0000   62.6229 -999.0000 -999.0000 -999.0000    1.0579    1.7844   -0.6864 -999.0000    1.0579   32.9102    0.5027   32.9102    0.1800   67.1333 
 477.6216   38.1033    0.7095  477.6010  308.3710    9.6250 7800.0000 -999.0000   34.6920 -999.0000 -999.0000 -999.0000 -999.0000    0.9626 -999.0000 -999.0000   -9.9900    3.0000    2.0000 -999.0000   60.8020 -999.0000 -999.0000 -999.0000    1.0579    1.8153   -0.1845 -999.0000    1.0579   32.4188    0.5030   32.4188    0.1800   67.6458 
 477.7740   38.1178    0.7102  477.7534  308.5234    9.6250 7800.0000 -999.0000   34.6998 -999.0000 -999.0000 -999.0000 -999.0000    0.9132 -999.0000 -999.0000   -9.9900    3.0000    2.0000 -999.0000   59.2233 -999.0000 -999.0000 -999.0000    1.0580    1.8246   -0.3472 -999.0000    1.0580   32.6582    0.4992   32.6582    0.1800   67.4935 
 477.9264   38.1322    0.7108  477.9058  308.6758    9.6250 7800.0000 -999.0000   34.7077 -999.0000 -999.0000 -999.0000 -999.0000    0.8206 -999.0000 -999.0000   -9.9900    3.0000    2.0000 -999.0000   56.2584 -999.0000 -999.0000 -999.0000    1.0559    1.8313   -0.7469 -999.0000    1.0559   33.2556    0.4957   33.2556    0.1800   67.1043 
 478.0788   38.1467    0.7114  478.0581  308.8282    9.6250 7800.0000 -999.0000   34.7156 -999.0000 -999.0000 -999.0000 -999.0000    0.8212 -999.0000 -999.0000   -9.9900    3.0000    2.0000 -999.0000   56.2783 -999.0000 -999.0000 -999.0000    1.0404    1.8319   -0.8171 -999.0000    1.0404   32.7103    0.4940   32.7103    0.1800   67.0446 
 478.2312   38.1611    0.7120  478.2105  308.9805    9.6250 7800.0000 -999.0000   34.7235 -999.0000 -999.0000 -999.0000 -999.0000    0.8206 -999.0000 -999.0000   -9.9900    3.0000    2.0000 -999.0000   56.2590 -999.0000 -999.0000 -999.0000    1.0252    1.8155   -1.0960 -999.0000    1.0252   31.9715    0.4959   31.9715    0.1800   66.7762 
 478.3836   38.1755    0.7126  478.3629  309.1329    9.6250 7800.0000 -999.0000   34.7314 -999.0000 -999.0000 -999.0000 -999.0000    0.8277 -999.0000 -999.0000   -9.9900    3.0000    2.0000 -999.0000   56.4862 -999.0000 -999.0000 -999.0000    1.0180    1.7704   -1.7967 -999.0000    1.0180   31.6686    0.5009   31.6686    0.1800   66.0860 
 478.5360   38.1899    0.7132  478.5153  309.2853    9.6250 7800.0000 -999.0000   34.7392 -999.0000 -999.0000 -999.0000 -999.0000    0.8001 -999.0000 -999.0000   -9.9900    3.0000    2.0000 -999.0000   55.6041 -999.0000 -999.0000 -999.0000    1.0179    1.7198   -2.2792 -999.0000    1.0179   31.9564    0.5043   31.9564    0.1800   65.6139 
 478.6884   38.2042    0.7138  478.6677  309.4377    9.6250 7800.0000 -999.0000   34.7471 -999.0000 -999.0000 -999.0000 -999.0000    0.7911 -999.0000 -999.0000   -9.9900    3.0000    2.0000 -999.0000   55.3138 -999.0000 -999.0000 -999.0000    1.0179    1.6846   -2.0807 -999.0000    1.0179   31.9646    0.5071   31.9646    0.1800   65.8229 
 478.8408   38.2186    0.7144  478.8201  309.5901    9.6250 7800.0000 -999.0000   34.7550 -999.0000 -999.0000 -999.0000 -999.0000    0.8049 -999.0000 -999.0000   -9.9900    3.0000    2.0000 -999.0000   55.7558 -999.0000 -999.0000 -999.0000    1.0179    1.6419   -1.6671 -999.0000    1.0179   31.8816    0.5060   31.8816    0.1800   66.2470 
 478.9932   38.2329    0.7150  478.9725  309.7425    9.6250 7800.0000 -999.0000   34.7629 -999.0000 -999.0000 -999.0000 -999.0000    0.8234 -999.0000 -999.0000   -9.9900    3.0000    2.0000 -999.0000   56.3488 -999.0000 -999.0000 -999.0000    1.0367    1.6621   -1.3438 -999.0000    1.0367   32.2206    0.5055   32.2206    0.1800   66.5808 
