~VERSION INFORMATION
 VERS.                 2.0:   CWLS LOG ASCII STANDARD - VERSION 2.0
 WRAP.                  NO:   SINGLE LINE PER DEPTH STEP
 CREA.                 01/24/2018 18:21:00
#CREATED USING IP VERSION 4.4.2017.271 BY STROBEJO ON 01/24/2018 18:21:00
~WELL INFORMATION
#MNEM.UNIT       DATA                          DESCRIPTION MNEMONIC
#---------      ---------------------------   --------------------------
 STRT    .M         0.0000                    : START DEPTH
 STOP    .M         1062.9900                 : STOP DEPTH
 STEP    .M         0.1524                    : STEP VALUE
 NULL    .      -999.0000                     : NULL VALUE
 DATE    .      01/24/2018                    : LAS file Creation Date
 WELL  .      Landau 172     : Well Name
 COM1  .      WH             : Well Comment
 COMP  .      Wintershall    : Company
 FLD   .      Landau         : Field
 STATE .      Rheinl.-Pfalz  : State
 COUNT .      Germany        : Country
 API   .      252449617201   : API Number
 UWI   .      252449617201   : Unique Well Identifier (UWI)
 LOC   .                     : Location
 LATI  .      5453494.46     : Latitude/Northing
 LONG  .      436438.29      : Longitude/Easting
 PDAT  .      Mean Sea Level : Permanent Datum
 EPDAT .      0.0000         : Elevation of Permanent Datum
 LGMEA .      GL             : Log Measured from
 DRMEA .      GL             : Drill Measured From
 APDAT .      169.23         : Elevation Above Permanent Datum
 GL    .      169.23         : GL Elevation
 RWS   .      0              : Def_Rw
 WST   .      0              : Def_Rwt
 UTMZ  .      32             : UTM Zone
 DATS  .      28.08.1977     : Spud Date
 COMD  .      15.09.1977     : Completion Date
 BHS   .      Producer - Oil : Completion Status
 CNTY  .      Landau/Pfalz   : County
 PROV  .                     : Province
 MDEC  .      0              : Magnetic Declination
 SRVC  .      SCH            : Contractor
~CURVE INFORMATION
#MNEM              UNIT       API CODE   Curve Type  Comments
#----------  --------------- ----------  ----------- -----------
 DEPTH      .M                         : Depth        
 HAZI       .Deg                       : Azimuth      
 HDEVI      .Deg                       : Deviation    
 TVD        .M                         : Depth        
 TVDSS      .M                         : Depth        
 BS         .inch                      : BitSize      
 Bsal       .ppm                       : BitSize      
 K_reg      .mD                        :              
 Temp       .C                         : Temp         
 PHIE       .Dec                       : Phi          
 PHIT       .Dec                       : PhiT         
 SW         .Dec                       : Sw           
 SXO        .Dec                       : Sxo          
 VCL        .Dec                       : Vcl          
 CGDN       .g/c3                      : CoreGD       
 CPERM      .md                        : CorePerm     
 CPOR       .v/v                       : CorePhi      
 Block      .                          :              
 Layer      .                          :              
 CALI       .IN                        : Caliper      Caliper
 GR         .GAPI                      : GammaRay     Gamma Ray
 MINV       .OHMM                      : MicroInvers  Micro-Inverse Resistivity
 MLL        .OHMM                      : MicroRes     Mll Resistivity
 MNOR       .OHMM                      : MicroNor     Micro-Normal Resistivity
 RD         .OHMM                      : DeepRes      Deep Induction Standard Processed Resistivity
 RS         .OHMM                      : ShalRes      Short Normal
 SP         .MV                        : SP           Spontaneous Potential
 RHOB       .G/C3                      : Density      Bulk Density
 LAT        .OHMM                      : DeepRes      Deep Induction Standard Processed Resistivity
 SIGM       .CU                        : sigma        5  RST Sigma
 TPHI       .m3/m3                     : tdt          6  RST Porosity
 SIGM       .CU                        : sigma        5  RST Sigma
 RW_25C     .                          :              
 SPbu       .MV                        : SP           Spontaneous Potential
~P IP parameters
#Name        Value                 Description
#----- --------------------------  -----------
#Logging Run 
 RUN  .     1                                           : Run Number
 DATE .     09/14/1977                                  : Date                      | RUN[0]
 BS   .     8                                           : Bit Size                  | RUN[1]
 DFT  .     /                                           : Type of Fluid in Hole     | RUN[1]
 DFD  .     1                                           : Mud Weight                | RUN[1]
 RMF  .     .82                                         : Rmf                       | RUN[1]
 MFST .     18                                          : at Meas Temp              | RUN[1]
 BHT  .     75                                          : BHT                       | RUN[1]
 TLAB .     ????/12/10                                  : Time at Bottom            | RUN[1]
 R1   .     Teufe korreliert an SLB-IEL vom 13.09.1977  : Remark 1                  | RUN[1]
 RW   .     1                                           : Rw                        | RUN[1]
 CSIZ .     7                                           : Casing Size               | RUN[1]
~A  DEPTH    HAZI     HDEVI      TVD      TVDSS       BS       Bsal     K_reg      Temp      PHIE      PHIT       SW       SXO       VCL       CGDN     CPERM      CPOR     Block     Layer      CALI       GR       MINV      MLL       MNOR       RD        RS        SP       RHOB      LAT       SIGM      TPHI      SIGM     RW_25C     SPbu   
# ...
 991.2096   60.0000    1.0000  991.1222  821.8922    9.6250 7800.0000    0.0210   61.2410    0.0001    0.2911    1.0000    1.0000    0.8315 -999.0000 -999.0000   -9.9900    3.0000    5.0000   10.2058   43.2941    0.9531    1.4797    1.0329    0.9280    2.2458   -3.4186    2.3888    0.9280 -999.0000 -999.0000 -999.0000    0.1800   35.9576 
 991.3620   60.0000    1.0000  991.2746  822.0446    9.6250 7800.0000    0.0210   61.2489    0.0001    0.3005    1.0000    1.0000    0.8582 -999.0000 -999.0000   -9.9900    3.0000    5.0000   10.1215   43.8796    0.9032    1.3372    1.1028    0.9449    2.1999   -3.1325    2.4060    0.9449 -999.0000 -999.0000 -999.0000    0.1800   35.9423 
 991.5144   60.0000    1.0000  991.4270  822.1970    9.6250 7800.0000    0.0210   61.2568    0.0001    0.2973    1.0000    1.0000    0.8490 -999.0000 -999.0000   -9.9900    3.0000    5.0000   10.0377   43.6791    0.8832    1.7951    0.9028    0.9617    2.1618   -2.6208    2.3877    0.9617 -999.0000 -999.0000 -999.0000    0.1800   36.1526 
 991.6668   60.0000    1.0000  991.5794  822.3494    9.6250 7800.0000    0.0210   61.2647    0.0001    0.3292    1.0000    1.0000    0.9402 -999.0000 -999.0000   -9.9900    3.0000    5.0000    9.7154   45.6838    0.7335    0.9170    0.7735    0.9789    2.1531   -2.3626    2.3604    0.9789 -999.0000 -999.0000 -999.0000    0.1800   36.1093 
 991.8192   60.0000    1.0000  991.7317  822.5017    9.6250 7800.0000    0.0210   61.2725    0.0001    0.3463    1.0000    1.0000    0.9892 -999.0000 -999.0000   -9.9900    3.0000    5.0000    9.4984   50.1899    1.6218    1.9145    1.1727    1.0142    2.1684   -2.2278    2.3439    1.0142 -999.0000 -999.0000 -999.0000    0.1800   35.9426 
 991.9716   60.0000    1.0000  991.8841  822.6541    9.6250 7800.0000    0.0210   61.2804    0.0001    0.3501    1.0000    1.0000    1.0000 -999.0000 -999.0000   -9.9900    3.0000    5.0000    9.3840   52.9026    1.0928    1.6831    1.0828    1.0496    2.2195   -1.8647    2.3566    1.0496 -999.0000 -999.0000 -999.0000    0.1800   36.0044 
 992.1240   60.0000    1.0000  992.0365  822.8065    9.6250 7800.0000    0.0210   61.2883    0.0001    0.3454    1.0000    1.0000    0.9867 -999.0000 -999.0000   -9.9900    3.0000    5.0000    9.1196   53.9764    1.4122    1.7951    0.9731    1.1132    2.3362   -2.2798    2.3303    1.1132 -999.0000 -999.0000 -999.0000    0.1800   35.2878 
 992.2764   60.0000    1.0000  992.1889  822.9589    9.6250 7800.0000    0.0210   61.2962    0.0001    0.3481    1.0000    1.0000    0.9942 -999.0000 -999.0000   -9.9900    3.0000    5.0000    8.9299   53.2176    1.0230    1.5781    1.0030    1.1876    2.4720   -2.1210    2.3055    1.1876 -999.0000 -999.0000 -999.0000    0.1800   35.1452 
 992.4288   60.0000    1.0000  992.3412  823.1113    9.6250 7800.0000    0.0210   61.3040    0.0001    0.3501    1.0000    1.0000    1.0000 -999.0000 -999.0000   -9.9900    3.0000    5.0000    8.4564   53.3205    1.3822    1.6442    1.0529    1.2593    2.5785   -1.6057    2.3006    1.2593 -999.0000 -999.0000 -999.0000    0.1800   35.3591 
 992.5812   60.0000    1.0000  992.4936  823.2636    9.6250 7800.0000    0.0210   61.3119    0.0001    0.3501    1.0000    1.0000    1.0000 -999.0000 -999.0000   -9.9900    3.0000    5.0000    7.8469   51.9963    1.4621    1.2291    1.3024    1.3080    2.6172   -1.4966    2.3169    1.3080 -999.0000 -999.0000 -999.0000    0.1800   35.1667 
 992.7336   60.0000    1.0000  992.6460  823.4160    9.6250 7800.0000    0.0210   61.3198    0.0001    0.3468    1.0000    1.0000    0.9906 -999.0000 -999.0000   -9.9900    3.0000    5.0000    6.9753   49.9910    1.1627    1.6480    1.0600    1.3309    2.7642   -2.1972    2.3208    1.3309 -999.0000 -999.0000 -999.0000    0.1800   34.1646 
 992.8860   60.0000    1.0000  992.7984  823.5684    9.6250 7800.0000    0.0210   61.3277    0.0001    0.3420    1.0000    1.0000    0.9769 -999.0000 -999.0000   -9.9900    3.0000    5.0000    6.8395   46.5638    1.2924    2.3670    1.5681    1.3196    2.9271   -2.4844    2.3071    1.3196 -999.0000 -999.0000 -999.0000    0.1800   33.5761 
 993.0384   60.0000    1.0000  992.9508  823.7208    9.6250 7800.0000    0.0210   61.3356    0.0001    0.2773    1.0000    1.0000    0.7920 -999.0000 -999.0000   -9.9900    3.0000    5.0000    7.3899   42.4233    3.6624    7.9082    3.8331    1.2938    2.8512   -2.5868    2.3712    1.2938 -999.0000 -999.0000 -999.0000    0.1800   33.1722 
 993.1908   60.0000    1.0000  993.1031  823.8731    9.6250 7800.0000    0.0213   61.3434    0.0004    0.2334    1.0000    1.0000    0.6656 -999.0000 -999.0000   -9.9900    3.0000    5.0000    7.8802   39.6430    5.0050    1.5148    4.9850    1.2680    2.7654   -2.4902    2.3750    1.2680 -999.0000 -999.0000 -999.0000    0.1800   32.9674 
 993.3432   60.0000    1.0000  993.2555  824.0255    9.6250 7800.0000    0.0226   61.3513    0.0020    0.2109    1.0000    1.0000    0.5966 -999.0000 -999.0000   -9.9900    3.0000    5.0000    7.3906   38.1254    0.9032    1.9809    1.1028    1.2695    2.7835   -2.0384    2.3117    1.2695 -999.0000 -999.0000 -999.0000    0.1800   33.1177 
 993.4956   60.0000    1.0000  993.4079  824.1779    9.6250 7800.0000    0.0223   61.3592    0.0017    0.2133    1.0000    1.0000    0.6047 -999.0000 -999.0000   -9.9900    3.0000    5.0000    6.8675   38.3026    1.7129   10.1229    2.0427    1.2894    2.7648   -1.6843    2.3132    1.2894 -999.0000 -999.0000 -999.0000    0.1800   33.1704 
 993.6480   60.0000    1.0000  993.5603  824.3303    9.6250 7800.0000    0.0211   61.3671    0.0002    0.2416    1.0000    1.0000    0.6896    2.7200 -999.0000   -1.8420    3.0000    5.0000    8.1209   40.1713    3.3184    7.4039    2.5499    1.3746    2.7537   -1.3862    2.3073    1.3746 -999.0000 -999.0000 -999.0000    0.1800   33.1670 
 993.8004   60.0000    1.0000  993.7126  824.4826    9.6250 7800.0000    0.0210   61.3749    0.0001    0.2519    1.0000    1.0000    0.7194 -999.0000 -999.0000   -9.9900    3.0000    5.0000    9.5443   40.8273    1.0230    1.4527    0.9032    1.4998    2.8024   -1.1774    2.2825    1.4998 -999.0000 -999.0000 -999.0000    0.1800   33.0744 
 993.9528   60.0000    1.0000  993.8650  824.6350    9.6250 7800.0000    0.0210   61.3828    0.0001    0.2701    1.0000    1.0000    0.7715    2.7200   21.5000   -2.6597    3.0000    5.0000   10.7499   41.9728    1.0882    1.8796    1.0030    1.6351    3.0482   -0.9111    2.2890    1.6351 -999.0000 -999.0000 -999.0000    0.1800   33.0393 
 994.1052   60.0000    1.0000  994.0174  824.7874    9.6250 7800.0000    0.0210   61.3907    0.0001    0.2515    1.0000    1.0000    0.7184 -999.0000 -999.0000   -9.9900    3.0000    5.0000   10.8115   40.8039    1.0124    1.6524    0.8633    1.8676    3.4386   -0.6879    2.2797    1.8676 -999.0000 -999.0000 -999.0000    0.1800   32.9611 
 994.2576   60.0000    1.0000  994.1698  824.9398    9.6250 7800.0000    0.0212   61.3986    0.0004    0.2343    1.0000    1.0000    0.6684 -999.0000 -999.0000   -9.9900    3.0000    5.0000    9.8503   39.7054    0.9227    1.5636    0.7934    2.1706    4.1945   -1.4306    2.2767    2.1706 -999.0000 -999.0000 -999.0000    0.1800   31.9169 
 994.4100   60.0000    1.0000  994.3221  825.0922    9.6250 7800.0000    0.0212   61.4065    0.0004    0.2344    1.0000    1.0000    0.6686 -999.0000 -999.0000   -9.9900    3.0000    5.0000    9.7992   39.7092    1.0213    1.7951    0.9731    2.7176    5.0726   -2.7520    2.3197    2.7176 -999.0000 -999.0000 -999.0000    0.1800   30.2941 
 994.5624   60.0000    1.0000  994.4745  825.2445    9.6250 7800.0000    0.0213   61.4143    0.0004    0.2333    1.0000    1.0000    0.6655 -999.0000 -999.0000   -9.9900    3.0000    5.0000    9.7024   39.6404    4.7686    5.4150    2.9790    3.3158    6.1230   -4.7856    2.3420    3.3158 -999.0000 -999.0000 -999.0000    0.1800   28.3265 
 994.7148   60.0000    1.0000  994.6269  825.3969    9.6250 7800.0000    0.0245   61.4222    0.0044    0.2006    1.0000    1.0000    0.5605 -999.0000 -999.0000   -9.9900    3.0000    5.0000    9.6737   37.3310    2.4813    2.5464    2.3703    4.0063    7.0800   -6.6049    2.3506    4.0063 -999.0000 -999.0000 -999.0000    0.1800   26.5764 
