~VERSION INFORMATION
 VERS.                 2.0:   CWLS LOG ASCII STANDARD - VERSION 2.0
 WRAP.                  NO:   SINGLE LINE PER DEPTH STEP
 CREA.                 01/24/2018 18:21:00
#CREATED USING IP VERSION 4.4.2017.271 BY STROBEJO ON 01/24/2018 18:21:00
~WELL INFORMATION
#MNEM.UNIT       DATA                          DESCRIPTION MNEMONIC
#---------      ---------------------------   --------------------------
 STRT    .M         0.0000                    : START DEPTH
 STOP    .M         1062.9900                 : STOP DEPTH
 STEP    .M         0.1524                    : STEP VALUE
 NULL    .      -999.0000                     : NULL VALUE
 DATE    .      01/24/2018                    : LAS file Creation Date
 WELL  .      Landau 172     : Well Name
 COM1  .      WH             : Well Comment
 COMP  .      Wintershall    : Company
 FLD   .      Landau         : Field
 STATE .      Rheinl.-Pfalz  : State
 COUNT .      Germany        : Country
 API   .      252449617201   : API Number
 UWI   .      252449617201   : Unique Well Identifier (UWI)
 LOC   .                     : Location
 LATI  .      5453494.46     : Latitude/Northing
 LONG  .      436438.29      : Longitude/Easting
 PDAT  .      Mean Sea Level : Permanent Datum
 EPDAT .      0.0000         : Elevation of Permanent Datum
 LGMEA .      GL             : Log Measured from
 DRMEA .      GL             : Drill Measured From
 APDAT .      169.23         : Elevation Above Permanent Datum
 GL    .      169.23         : GL Elevation
 RWS   .      0              : Def_Rw
 WST   .      0              : Def_Rwt
 UTMZ  .      32             : UTM Zone
 DATS  .      28.08.1977     : Spud Date
 COMD  .      15.09.1977     : Completion Date
 BHS   .      Producer - Oil : Completion Status
 CNTY  .      Landau/Pfalz   : County
 PROV  .                     : Province
 MDEC  .      0              : Magnetic Declination
 SRVC  .      SCH            : Contractor
~CURVE INFORMATION
#MNEM              UNIT       API CODE   Curve Type  Comments
#----------  --------------- ----------  ----------- -----------
 DEPTH      .M                         : Depth        
 HAZI       .Deg                       : Azimuth      
 HDEVI      .Deg                       : Deviation    
 TVD        .M                         : Depth        
 TVDSS      .M                         : Depth        
 BS         .inch                      : BitSize      
 Bsal       .ppm                       : BitSize      
 K_reg      .mD                        :              
 Temp       .C                         : Temp         
 PHIE       .Dec                       : Phi          
 PHIT       .Dec                       : PhiT         
 SW         .Dec                       : Sw           
 SXO        .Dec                       : Sxo          
 VCL        .Dec                       : Vcl          
 CGDN       .g/c3                      : CoreGD       
 CPERM      .md                        : CorePerm     
 CPOR       .v/v                       : CorePhi      
 Block      .                          :              
 Layer      .                          :              
 CALI       .IN                        : Caliper      Caliper
 GR         .GAPI                      : GammaRay     Gamma Ray
 MINV       .OHMM                      : MicroInvers  Micro-Inverse Resistivity
 MLL        .OHMM                      : MicroRes     Mll Resistivity
 MNOR       .OHMM                      : MicroNor     Micro-Normal Resistivity
 RD         .OHMM                      : DeepRes      Deep Induction Standard Processed Resistivity
 RS         .OHMM                      : ShalRes      Short Normal
 SP         .MV                        : SP           Spontaneous Potential
 RHOB       .G/C3                      : Density      Bulk Density
 LAT        .OHMM                      : DeepRes      Deep Induction Standard Processed Resistivity
 SIGM       .CU                        : sigma        5  RST Sigma
 TPHI       .m3/m3                     : tdt          6  RST Porosity
 SIGM       .CU                        : sigma        5  RST Sigma
 RW_25C     .                          :              
 SPbu       .MV                        : SP           Spontaneous Potential
~P IP parameters
#Name        Value                 Description
#----- --------------------------  -----------
#Logging Run 
 RUN  .     1                                           : Run Number
 DATE .     09/14/1977                                  : Date                      | RUN[0]
 BS   .     8                                           : Bit Size                  | RUN[1]
 DFT  .     /                                           : Type of Fluid in Hole     | RUN[1]
 DFD  .     1                                           : Mud Weight                | RUN[1]
 RMF  .     .82                                         : Rmf                       | RUN[1]
 MFST .     18                                          : at Meas Temp              | RUN[1]
 BHT  .     75                                          : BHT                       | RUN[1]
 TLAB .     ????/12/10                                  : Time at Bottom            | RUN[1]
 R1   .     Teufe korreliert an SLB-IEL vom 13.09.1977  : Remark 1                  | RUN[1]
 RW   .     1                                           : Rw                        | RUN[1]
 CSIZ .     7                                           : Casing Size               | RUN[1]
~A  DEPTH    HAZI     HDEVI      TVD      TVDSS       BS       Bsal     K_reg      Temp      PHIE      PHIT       SW       SXO       VCL       CGDN     CPERM      CPOR     Block     Layer      CALI       GR       MINV      MLL       MNOR       RD        RS        SP       RHOB      LAT       SIGM      TPHI      SIGM     RW_25C     SPbu   
# ...
 877.8240   62.3433    1.0435  877.7541  708.5241    9.6250 7800.0000 -999.0000   55.3799 -999.0000 -999.0000 -999.0000 -999.0000    0.8935 -999.0000 -999.0000   -9.9900    3.0000    4.0000 -999.0000 -999.0000 -999.0000 -999.0000 -999.0000    2.4942    3.8220   -1.4914 -999.0000    2.4942 -999.0000 -999.0000 -999.0000    0.1200   54.9055 
 877.9764   62.3280    1.0432  877.9064  708.6764    9.6250 7800.0000 -999.0000   55.3878 -999.0000 -999.0000 -999.0000 -999.0000    0.8678 -999.0000 -999.0000   -9.9900    3.0000    4.0000 -999.0000 -999.0000 -999.0000 -999.0000 -999.0000    2.5385    3.8827   -1.8510 -999.0000    2.5385 -999.0000 -999.0000 -999.0000    0.1200   54.5728 
 878.1288   62.3126    1.0429  878.0588  708.8288    9.6250 7800.0000 -999.0000   55.3956 -999.0000 -999.0000 -999.0000 -999.0000    0.8456 -999.0000 -999.0000   -9.9900    3.0000    4.0000 -999.0000 -999.0000 -999.0000 -999.0000 -999.0000    2.4982    3.9710   -2.1617 -999.0000    2.4982 -999.0000 -999.0000 -999.0000    0.1200   54.2890 
 878.2812   62.2972    1.0426  878.2112  708.9812    9.6250 7800.0000 -999.0000   55.4035 -999.0000 -999.0000 -999.0000 -999.0000    0.8246 -999.0000 -999.0000   -9.9900    3.0000    4.0000 -999.0000 -999.0000 -999.0000 -999.0000 -999.0000    2.3861    3.9702   -2.4557 -999.0000    2.3861 -999.0000 -999.0000 -999.0000    0.1200   54.0220 
 878.4336   62.2818    1.0423  878.3636  709.1336    9.6250 7800.0000 -999.0000   55.4114 -999.0000 -999.0000 -999.0000 -999.0000    0.8023 -999.0000 -999.0000   -9.9900    3.0000    4.0000 -999.0000 -999.0000 -999.0000 -999.0000 -999.0000    2.2967    3.9381   -2.7679 -999.0000    2.2967 -999.0000 -999.0000 -999.0000    0.1200   53.7367 
 878.5860   62.2663    1.0420  878.5159  709.2859    9.6250 7800.0000 -999.0000   55.4193 -999.0000 -999.0000 -999.0000 -999.0000    0.8124 -999.0000 -999.0000   -9.9900    3.0000    4.0000 -999.0000 -999.0000 -999.0000 -999.0000 -999.0000    2.2454    3.8099   -2.6260 -999.0000    2.2454 -999.0000 -999.0000 -999.0000    0.1200   53.9056 
 878.7384   62.2509    1.0417  878.6683  709.4383    9.6250 7800.0000 -999.0000   55.4272 -999.0000 -999.0000 -999.0000 -999.0000    0.7891 -999.0000 -999.0000   -9.9900    3.0000    4.0000 -999.0000 -999.0000 -999.0000 -999.0000 -999.0000    2.1756    3.6419   -2.9533 -999.0000    2.1756 -999.0000 -999.0000 -999.0000    0.1200   53.6052 
 878.8908   62.2355    1.0414  878.8207  709.5907    9.6250 7800.0000 -999.0000   55.4350 -999.0000 -999.0000 -999.0000 -999.0000    0.7978 -999.0000 -999.0000   -9.9900    3.0000    4.0000 -999.0000 -999.0000 -999.0000 -999.0000 -999.0000    2.1065    3.4618   -2.8301 -999.0000    2.1065 -999.0000 -999.0000 -999.0000    0.1200   53.7553 
 879.0432   62.2200    1.0411  878.9730  709.7431    9.6250 7800.0000 -999.0000   55.4429 -999.0000 -999.0000 -999.0000 -999.0000    0.7958 -999.0000 -999.0000   -9.9900    3.0000    4.0000 -999.0000 -999.0000 -999.0000 -999.0000 -999.0000    2.0434    3.3413   -2.8592 -999.0000    2.0434 -999.0000 -999.0000 -999.0000    0.1200   53.7532 
 879.1956   62.2046    1.0408  879.1254  709.8954    9.6250 7800.0000 -999.0000   55.4508 -999.0000 -999.0000 -999.0000 -999.0000    0.7646 -999.0000 -999.0000   -9.9900    3.0000    4.0000 -999.0000 -999.0000 -999.0000 -999.0000 -999.0000    1.9934    3.3333   -3.2963 -999.0000    1.9934 -999.0000 -999.0000 -999.0000    0.1200   53.3430 
 879.3480   62.1891    1.0405  879.2778  710.0478    9.6250 7800.0000 -999.0000   55.4587 -999.0000 -999.0000 -999.0000 -999.0000    0.7541 -999.0000 -999.0000   -9.9900    3.0000    4.0000 -999.0000 -999.0000 -999.0000 -999.0000 -999.0000    1.9375    3.3500   -3.4428 -999.0000    1.9375 -999.0000 -999.0000 -999.0000    0.1200   53.2234 
 879.5004   62.1737    1.0402  879.4302  710.2002    9.6250 7800.0000 -999.0000   55.4665 -999.0000 -999.0000 -999.0000 -999.0000    0.7376 -999.0000 -999.0000   -9.9900    3.0000    4.0000 -999.0000 -999.0000 -999.0000 -999.0000 -999.0000    1.9362    3.3842   -3.6737 -999.0000    1.9362 -999.0000 -999.0000 -999.0000    0.1200   53.0194 
 879.6528   62.1582    1.0399  879.5825  710.3526    9.6250 7800.0000 -999.0000   55.4744 -999.0000 -999.0000 -999.0000 -999.0000    0.7411 -999.0000 -999.0000   -9.9900    3.0000    4.0000 -999.0000 -999.0000 -999.0000 -999.0000 -999.0000    1.9361    3.4003   -3.6246 -999.0000    1.9361 -999.0000 -999.0000 -999.0000    0.1200   53.0955 
 879.8052   62.1427    1.0396  879.7349  710.5049    9.6250 7800.0000 -999.0000   55.4823 -999.0000 -999.0000 -999.0000 -999.0000    0.7801 -999.0000 -999.0000   -9.9900    3.0000    4.0000 -999.0000 -999.0000 -999.0000 -999.0000 -999.0000    1.9361    3.5324   -3.0785 -999.0000    1.9361 -999.0000 -999.0000 -999.0000    0.1200   53.6685 
 879.9576   62.1272    1.0393  879.8873  710.6573    9.6250 7800.0000 -999.0000   55.4902 -999.0000 -999.0000 -999.0000 -999.0000    0.8444 -999.0000 -999.0000   -9.9900    3.0000    4.0000 -999.0000 -999.0000 -999.0000 -999.0000 -999.0000    1.9360    3.5643   -2.1789 -999.0000    1.9360 -999.0000 -999.0000 -999.0000    0.1200   54.5951 
 880.1100   62.1117    1.0390  880.0397  710.8097    9.6250 7800.0000 -999.0000   55.4981 -999.0000 -999.0000 -999.0000 -999.0000    0.8912 -999.0000 -999.0000   -9.9900    3.0000    4.0000 -999.0000 -999.0000 -999.0000 -999.0000 -999.0000    1.9362    3.6150   -1.5235 -999.0000    1.9362 -999.0000 -999.0000 -999.0000    0.1200   55.2774 
 880.2624   62.0962    1.0387  880.1920  710.9621    9.6250 7800.0000 -999.0000   55.5059 -999.0000 -999.0000 -999.0000 -999.0000    0.9030 -999.0000 -999.0000   -9.9900    3.0000    4.0000 -999.0000 -999.0000 -999.0000 -999.0000 -999.0000    2.0087    3.6933   -1.3574 -999.0000    2.0087 -999.0000 -999.0000 -999.0000    0.1200   55.4704 
 880.4148   62.0807    1.0384  880.3444  711.1144    9.6250 7800.0000 -999.0000   55.5138 -999.0000 -999.0000 -999.0000 -999.0000    0.9026 -999.0000 -999.0000   -9.9900    3.0000    4.0000 -999.0000 -999.0000 -999.0000 -999.0000 -999.0000    2.1091    3.6928   -1.3641 -999.0000    2.1091 -999.0000 -999.0000 -999.0000    0.1200   55.4906 
 880.5672   62.0651    1.0381  880.4968  711.2668    9.6250 7800.0000 -999.0000   55.5217 -999.0000 -999.0000 -999.0000 -999.0000    0.8873 -999.0000 -999.0000   -9.9900    3.0000    4.0000 -999.0000 -999.0000 -999.0000 -999.0000 -999.0000    2.2163    3.6911   -1.5778 -999.0000    2.2163 -999.0000 -999.0000 -999.0000    0.1200   55.3039 
 880.7196   62.0496    1.0378  880.6492  711.4192    9.6250 7800.0000 -999.0000   55.5296 -999.0000 -999.0000 -999.0000 -999.0000    0.8563 -999.0000 -999.0000   -9.9900    3.0000    4.0000 -999.0000 -999.0000 -999.0000 -999.0000 -999.0000    2.2193    3.7733   -2.0112 -999.0000    2.2193 -999.0000 -999.0000 -999.0000    0.1200   54.8974 
 880.8720   62.0340    1.0375  880.8015  711.5716    9.6250 7800.0000 -999.0000   55.5374 -999.0000 -999.0000 -999.0000 -999.0000    0.8420 -999.0000 -999.0000   -9.9900    3.0000    4.0000 -999.0000 -999.0000 -999.0000 -999.0000 -999.0000    2.1456    3.7648   -2.2121 -999.0000    2.1456 -999.0000 -999.0000 -999.0000    0.1200   54.7234 
 881.0244   62.0185    1.0372  880.9539  711.7239    9.6250 7800.0000 -999.0000   55.5453 -999.0000 -999.0000 -999.0000 -999.0000    0.8507 -999.0000 -999.0000   -9.9900    3.0000    4.0000 -999.0000 -999.0000 -999.0000 -999.0000 -999.0000    2.0941    3.7111   -2.0903 -999.0000    2.0941 -999.0000 -999.0000 -999.0000    0.1200   54.8722 
 881.1768   62.0029    1.0369  881.1063  711.8763    9.6250 7800.0000 -999.0000   55.5532 -999.0000 -999.0000 -999.0000 -999.0000    0.8028 -999.0000 -999.0000   -9.9900    3.0000    4.0000 -999.0000 -999.0000 -999.0000 -999.0000 -999.0000    2.0131    3.5982   -2.7610 -999.0000    2.0131 -999.0000 -999.0000 -999.0000    0.1200   54.2284 
 881.3292   61.9873    1.0365  881.2587  712.0287    9.6250 7800.0000 -999.0000   55.5611 -999.0000 -999.0000 -999.0000 -999.0000    0.7679 -999.0000 -999.0000   -9.9900    3.0000    4.0000 -999.0000 -999.0000 -999.0000 -999.0000 -999.0000    1.9770    3.5488   -3.2487 -999.0000    1.9770 -999.0000 -999.0000 -999.0000    0.1200   53.7676 
