~VERSION INFORMATION
 VERS.                 2.0:   CWLS LOG ASCII STANDARD - VERSION 2.0
 WRAP.                  NO:   SINGLE LINE PER DEPTH STEP
 CREA.                 01/24/2018 18:21:00
#CREATED USING IP VERSION 4.4.2017.271 BY STROBEJO ON 01/24/2018 18:21:00
~WELL INFORMATION
#MNEM.UNIT       DATA                          DESCRIPTION MNEMONIC
#---------      ---------------------------   --------------------------
 STRT    .M         0.0000                    : START DEPTH
 STOP    .M         1062.9900                 : STOP DEPTH
 STEP    .M         0.1524                    : STEP VALUE
 NULL    .      -999.0000                     : NULL VALUE
 DATE    .      01/24/2018                    : LAS file Creation Date
 WELL  .      Landau 172     : Well Name
 COM1  .      WH             : Well Comment
 COMP  .      Wintershall    : Company
 FLD   .      Landau         : Field
 STATE .      Rheinl.-Pfalz  : State
 COUNT .      Germany        : Country
 API   .      252449617201   : API Number
 UWI   .      252449617201   : Unique Well Identifier (UWI)
 LOC   .                     : Location
 LATI  .      5453494.46     : Latitude/Northing
 LONG  .      436438.29      : Longitude/Easting
 PDAT  .      Mean Sea Level : Permanent Datum
 EPDAT .      0.0000         : Elevation of Permanent Datum
 LGMEA .      GL             : Log Measured from
 DRMEA .      GL             : Drill Measured From
 APDAT .      169.23         : Elevation Above Permanent Datum
 GL    .      169.23         : GL Elevation
 RWS   .      0              : Def_Rw
 WST   .      0              : Def_Rwt
 UTMZ  .      32             : UTM Zone
 DATS  .      28.08.1977     : Spud Date
 COMD  .      15.09.1977     : Completion Date
 BHS   .      Producer - Oil : Completion Status
 CNTY  .      Landau/Pfalz   : County
 PROV  .                     : Province
 MDEC  .      0              : Magnetic Declination
 SRVC  .      SCH            : Contractor
~CURVE INFORMATION
#MNEM              UNIT       API CODE   Curve Type  Comments
#----------  --------------- ----------  ----------- -----------
 DEPTH      .M                         : Depth        
 HAZI       .Deg                       : Azimuth      
 HDEVI      .Deg                       : Deviation    
 TVD        .M                         : Depth        
 TVDSS      .M                         : Depth        
 BS         .inch                      : BitSize      
 Bsal       .ppm                       : BitSize      
 K_reg      .mD                        :              
 Temp       .C                         : Temp         
 PHIE       .Dec                       : Phi          
 PHIT       .Dec                       : PhiT         
 SW         .Dec                       : Sw           
 SXO        .Dec                       : Sxo          
 VCL        .Dec                       : Vcl          
 CGDN       .g/c3                      : CoreGD       
 CPERM      .md                        : CorePerm     
 CPOR       .v/v                       : CorePhi      
 Block      .                          :              
 Layer      .                          :              
 CALI       .IN                        : Caliper      Caliper
 GR         .GAPI                      : GammaRay     Gamma Ray
 MINV       .OHMM                      : MicroInvers  Micro-Inverse Resistivity
 MLL        .OHMM                      : MicroRes     Mll Resistivity
 MNOR       .OHMM                      : MicroNor     Micro-Normal Resistivity
 RD         .OHMM                      : DeepRes      Deep Induction Standard Processed Resistivity
 RS         .OHMM                      : ShalRes      Short Normal
 SP         .MV                        : SP           Spontaneous Potential
 RHOB       .G/C3                      : Density      Bulk Density
 LAT        .OHMM                      : DeepRes      Deep Induction Standard Processed Resistivity
 SIGM       .CU                        : sigma        5  RST Sigma
 TPHI       .m3/m3                     : tdt          6  RST Porosity
 SIGM       .CU                        : sigma        5  RST Sigma
 RW_25C     .                          :              
 SPbu       .MV                        : SP           Spontaneous Potential
~P IP parameters
#Name        Value                 Description
#----- --------------------------  -----------
#Logging Run 
 RUN  .     1                                           : Run Number
 DATE .     09/14/1977                                  : Date                      | RUN[0]
 BS   .     8                                           : Bit Size                  | RUN[1]
 DFT  .     /                                           : Type of Fluid in Hole     | RUN[1]
 DFD  .     1                                           : Mud Weight                | RUN[1]
 RMF  .     .82                                         : Rmf                       | RUN[1]
 MFST .     18                                          : at Meas Temp              | RUN[1]
 BHT  .     75                                          : BHT                       | RUN[1]
 TLAB .     ????/12/10                                  : Time at Bottom            | RUN[1]
 R1   .     Teufe korreliert an SLB-IEL vom 13.09.1977  : Remark 1                  | RUN[1]
 RW   .     1                                           : Rw                        | RUN[1]
 CSIZ .     7                                           : Casing Size               | RUN[1]
~A  DEPTH    HAZI     HDEVI      TVD      TVDSS       BS       Bsal     K_reg      Temp      PHIE      PHIT       SW       SXO       VCL       CGDN     CPERM      CPOR     Block     Layer      CALI       GR       MINV      MLL       MNOR       RD        RS        SP       RHOB      LAT       SIGM      TPHI      SIGM     RW_25C     SPbu   
# ...
 819.3024   73.5111    0.9687  819.2423  650.0123    9.6250 7800.0000    0.0210   52.3548    0.0001    0.3360    1.0000    1.0000    0.9597 -999.0000 -999.0000   -9.9900    3.0000    4.0000   15.9835   45.8156    1.2425    1.2865    1.3124    1.4180    2.7084   -0.5647    1.8192    1.4180 -999.0000 -999.0000 -999.0000    0.1200   49.8889 
 819.4548   73.4634    0.9693  819.3947  650.1647    9.6250 7800.0000    0.0210   52.3627    0.0001    0.3408    1.0000    1.0000    0.9735 -999.0000 -999.0000   -9.9900    3.0000    4.0000   15.5481   44.2895    1.2126    1.5462    1.2625    1.4386    2.7436   -0.3716    1.8184    1.4386 -999.0000 -999.0000 -999.0000    0.1200   50.0863 
 819.6072   73.4158    0.9699  819.5471  650.3171    9.6250 7800.0000    0.0210   52.3706    0.0001    0.3361    1.0000    1.0000    0.9600 -999.0000 -999.0000   -9.9900    3.0000    4.0000   15.9680   44.5651    1.1427    1.5595    1.2026    1.4650    2.7612   -0.5600    1.8451    1.4650 -999.0000 -999.0000 -999.0000    0.1200   49.9023 
 819.7596   73.3683    0.9705  819.6994  650.4694    9.6250 7800.0000    0.0210   52.3785    0.0001    0.3247    1.0000    1.0000    0.9273 -999.0000 -999.0000   -9.9900    3.0000    4.0000   16.0331   44.9434    1.0729    1.6599    1.0729    1.5451    2.8311   -1.0175    1.8799    1.5451 -999.0000 -999.0000 -999.0000    0.1200   49.4492 
 819.9120   73.3208    0.9711  819.8518  650.6218    9.6250 7800.0000    0.0210   52.3863    0.0001    0.3117    1.0000    1.0000    0.8902 -999.0000 -999.0000   -9.9900    3.0000    4.0000   16.0292   44.6171    0.9132    1.7424    1.2750    1.6354    2.9710   -1.5366    1.9702    1.6354 -999.0000 -999.0000 -999.0000    0.1200   48.9345 
 820.0644   73.2734    0.9717  820.0042  650.7742    9.6250 7800.0000 -999.0000   52.3942 -999.0000 -999.0000 -999.0000 -999.0000    0.8776 -999.0000 -999.0000   -9.9900    3.0000    4.0000 -999.0000   45.2362    1.2226    2.1329    1.5020    1.7343    3.0954   -1.7136 -999.0000    1.7343 -999.0000 -999.0000 -999.0000    0.1200   48.7618 
 820.2168   73.2260    0.9723  820.1566  650.9266    9.6250 7800.0000 -999.0000   52.4021 -999.0000 -999.0000 -999.0000 -999.0000    0.8411 -999.0000 -999.0000   -9.9900    3.0000    4.0000 -999.0000   45.3716    0.4741  954.2731    0.9431    1.8375    3.1790   -2.2245 -999.0000    1.8375 -999.0000 -999.0000 -999.0000    0.1200   48.2553 
 820.3692   73.1787    0.9728  820.3090  651.0790    9.6250 7800.0000 -999.0000   52.4100 -999.0000 -999.0000 -999.0000 -999.0000    0.7998 -999.0000 -999.0000   -9.9900    3.0000    4.0000 -999.0000   45.7547    0.4742  954.2731    0.0717    1.9610    3.2845   -2.8031 -999.0000    1.9610 -999.0000 -999.0000 -999.0000    0.1200   47.6811 
 820.5216   73.1315    0.9734  820.4613  651.2313    9.6250 7800.0000 -999.0000   52.4179 -999.0000 -999.0000 -999.0000 -999.0000    0.8623 -999.0000 -999.0000   -9.9900    3.0000    4.0000 -999.0000   44.5261    0.4736  954.2731    0.0743    2.0156    3.5277   -1.9275 -999.0000    2.0156 -999.0000 -999.0000 -999.0000    0.1200   48.5610 
 820.6740   73.0843    0.9740  820.6137  651.3837    9.6250 7800.0000 -999.0000   52.4257 -999.0000 -999.0000 -999.0000 -999.0000    0.9036 -999.0000 -999.0000   -9.9900    3.0000    4.0000 -999.0000   43.3906    0.4741  954.2731    0.0280    2.0170    3.6349   -1.3489 -999.0000    2.0170 -999.0000 -999.0000 -999.0000    0.1200   49.1440 
 820.8264   73.0371    0.9746  820.7661  651.5361    9.6250 7800.0000 -999.0000   52.4336 -999.0000 -999.0000 -999.0000 -999.0000    0.9578 -999.0000 -999.0000   -9.9900    3.0000    4.0000 -999.0000   43.1242    0.4741  954.2731    0.0280    2.0609    3.6368   -0.5904 -999.0000    2.0609 -999.0000 -999.0000 -999.0000    0.1200   49.9068 
 820.9788   72.9901    0.9752  820.9185  651.6885    9.6250 7800.0000 -999.0000   52.4415 -999.0000 -999.0000 -999.0000 -999.0000    0.9400 -999.0000 -999.0000   -9.9900    3.0000    4.0000 -999.0000   43.5875 -999.0000 -999.0000 -999.0000    2.1407    3.6083   -0.8405 -999.0000    2.1407 -999.0000 -999.0000 -999.0000    0.1200   49.6611 
 821.1312   72.9430    0.9758  821.0708  651.8409    9.6250 7800.0000 -999.0000   52.4494 -999.0000 -999.0000 -999.0000 -999.0000    0.9474 -999.0000 -999.0000   -9.9900    3.0000    4.0000 -999.0000   43.7732 -999.0000 -999.0000 -999.0000    2.1352    3.5533   -0.7368 -999.0000    2.1352 -999.0000 -999.0000 -999.0000    0.1200   49.7692 
 821.2836   72.8961    0.9764  821.2232  651.9932    9.6250 7800.0000 -999.0000   52.4572 -999.0000 -999.0000 -999.0000 -999.0000    0.9536 -999.0000 -999.0000   -9.9900    3.0000    4.0000 -999.0000   42.9472 -999.0000 -999.0000 -999.0000    2.1356    3.5185   -0.6500 -999.0000    2.1356 -999.0000 -999.0000 -999.0000    0.1200   49.8603 
 821.4360   72.8492    0.9770  821.3756  652.1456    9.6250 7800.0000 -999.0000   52.4651 -999.0000 -999.0000 -999.0000 -999.0000    0.9275 -999.0000 -999.0000   -9.9900    3.0000    4.0000 -999.0000   43.3616 -999.0000 -999.0000 -999.0000    2.1381    3.5076   -1.0144 -999.0000    2.1381 -999.0000 -999.0000 -999.0000    0.1200   49.5003 
 821.5884   72.8023    0.9776  821.5280  652.2980    9.6250 7800.0000 -999.0000   52.4730 -999.0000 -999.0000 -999.0000 -999.0000    0.8851 -999.0000 -999.0000   -9.9900    3.0000    4.0000 -999.0000   44.7358 -999.0000 -999.0000 -999.0000    2.0991    3.5178   -1.6083 -999.0000    2.0991 -999.0000 -999.0000 -999.0000    0.1200   48.9107 
 821.7408   72.7555    0.9782  821.6804  652.4504    9.6250 7800.0000 -999.0000   52.4809 -999.0000 -999.0000 -999.0000 -999.0000    0.8856 -999.0000 -999.0000   -9.9900    3.0000    4.0000 -999.0000   44.8742 -999.0000 -999.0000 -999.0000    2.0657    3.5634   -1.6018 -999.0000    2.0657 -999.0000 -999.0000 -999.0000    0.1200   48.9217 
 821.8932   72.7088    0.9788  821.8327  652.6027    9.6250 7800.0000 -999.0000   52.4888 -999.0000 -999.0000 -999.0000 -999.0000    0.9393 -999.0000 -999.0000   -9.9900    3.0000    4.0000 -999.0000   43.7647 -999.0000 -999.0000 -999.0000    2.1079    3.6976   -0.8499 -999.0000    2.1079 -999.0000 -999.0000 -999.0000    0.1200   49.6779 
 822.0456   72.6621    0.9794  821.9851  652.7551    9.6250 7800.0000 -999.0000   52.4966 -999.0000 -999.0000 -999.0000 -999.0000    0.9412 -999.0000 -999.0000   -9.9900    3.0000    4.0000 -999.0000   43.6092 -999.0000 -999.0000 -999.0000    2.1761    3.7715   -0.8225 -999.0000    2.1761 -999.0000 -999.0000 -999.0000    0.1200   49.7096 
 822.1980   72.6155    0.9800  822.1375  652.9075    9.6250 7800.0000 -999.0000   52.5045 -999.0000 -999.0000 -999.0000 -999.0000    0.9592 -999.0000 -999.0000   -9.9900    3.0000    4.0000 -999.0000   42.5756 -999.0000 -999.0000 -999.0000    2.2150    3.7778   -0.5713 -999.0000    2.2150 -999.0000 -999.0000 -999.0000    0.1200   49.9652 
 822.3504   72.5690    0.9806  822.2899  653.0599    9.6250 7800.0000 -999.0000   52.5124 -999.0000 -999.0000 -999.0000 -999.0000    0.9947 -999.0000 -999.0000   -9.9900    3.0000    4.0000 -999.0000   42.3279 -999.0000 -999.0000 -999.0000    2.3345    3.7343   -0.0748 -999.0000    2.3345 -999.0000 -999.0000 -999.0000    0.1200   50.4661 
 822.5028   72.5225    0.9812  822.4422  653.2123    9.6250 7800.0000 -999.0000   52.5203 -999.0000 -999.0000 -999.0000 -999.0000    0.9949 -999.0000 -999.0000   -9.9900    3.0000    4.0000 -999.0000   44.3615 -999.0000 -999.0000 -999.0000    2.4333    3.9903   -0.0717 -999.0000    2.4333 -999.0000 -999.0000 -999.0000    0.1200   50.4736 
 822.6552   72.4760    0.9818  822.5946  653.3646    9.6250 7800.0000 -999.0000   52.5281 -999.0000 -999.0000 -999.0000 -999.0000    0.9285 -999.0000 -999.0000   -9.9900    3.0000    4.0000 -999.0000   44.3265 -999.0000 -999.0000 -999.0000    2.4559    4.0108   -1.0016 -999.0000    2.4559 -999.0000 -999.0000 -999.0000    0.1200   49.5480 
 822.8076   72.4296    0.9825  822.7470  653.5170    9.6250 7800.0000 -999.0000   52.5360 -999.0000 -999.0000 -999.0000 -999.0000    0.9237 -999.0000 -999.0000   -9.9900    3.0000    4.0000 -999.0000   42.8004 -999.0000 -999.0000 -999.0000    2.4551    4.0427   -1.0680 -999.0000    2.4551 -999.0000 -999.0000 -999.0000    0.1200   49.4860 
