~VERSION INFORMATION
 VERS.                 2.0:   CWLS LOG ASCII STANDARD - VERSION 2.0
 WRAP.                  NO:   SINGLE LINE PER DEPTH STEP
 CREA.                 01/24/2018 18:21:00
#CREATED USING IP VERSION 4.4.2017.271 BY STROBEJO ON 01/24/2018 18:21:00
~WELL INFORMATION
#MNEM.UNIT       DATA                          DESCRIPTION MNEMONIC
#---------      ---------------------------   --------------------------
 STRT    .M         0.0000                    : START DEPTH
 STOP    .M         1062.9900                 : STOP DEPTH
 STEP    .M         0.1524                    : STEP VALUE
 NULL    .      -999.0000                     : NULL VALUE
 DATE    .      01/24/2018                    : LAS file Creation Date
 WELL  .      Landau 172     : Well Name
 COM1  .      WH             : Well Comment
 COMP  .      Wintershall    : Company
 FLD   .      Landau         : Field
 STATE .      Rheinl.-Pfalz  : State
 COUNT .      Germany        : Country
 API   .      252449617201   : API Number
 UWI   .      252449617201   : Unique Well Identifier (UWI)
 LOC   .                     : Location
 LATI  .      5453494.46     : Latitude/Northing
 LONG  .      436438.29      : Longitude/Easting
 PDAT  .      Mean Sea Level : Permanent Datum
 EPDAT .      0.0000         : Elevation of Permanent Datum
 LGMEA .      GL             : Log Measured from
 DRMEA .      GL             : Drill Measured From
 APDAT .      169.23         : Elevation Above Permanent Datum
 GL    .      169.23         : GL Elevation
 RWS   .      0              : Def_Rw
 WST   .      0              : Def_Rwt
 UTMZ  .      32             : UTM Zone
 DATS  .      28.08.1977     : Spud Date
 COMD  .      15.09.1977     : Completion Date
 BHS   .      Producer - Oil : Completion Status
 CNTY  .      Landau/Pfalz   : County
 PROV  .                     : Province
 MDEC  .      0              : Magnetic Declination
 SRVC  .      SCH            : Contractor
~CURVE INFORMATION
#MNEM              UNIT       API CODE   Curve Type  Comments
#----------  --------------- ----------  ----------- -----------
 DEPTH      .M                         : Depth        
 HAZI       .Deg                       : Azimuth      
 HDEVI      .Deg                       : Deviation    
 TVD        .M                         : Depth        
 TVDSS      .M                         : Depth        
 BS         .inch                      : BitSize      
 Bsal       .ppm                       : BitSize      
 K_reg      .mD                        :              
 Temp       .C                         : Temp         
 PHIE       .Dec                       : Phi          
 PHIT       .Dec                       : PhiT         
 SW         .Dec                       : Sw           
 SXO        .Dec                       : Sxo          
 VCL        .Dec                       : Vcl          
 CGDN       .g/c3                      : CoreGD       
 CPERM      .md                        : CorePerm     
 CPOR       .v/v                       : CorePhi      
 Block      .                          :              
 Layer      .                          :              
 CALI       .IN                        : Caliper      Caliper
 GR         .GAPI                      : GammaRay     Gamma Ray
 MINV       .OHMM                      : MicroInvers  Micro-Inverse Resistivity
 MLL        .OHMM                      : MicroRes     Mll Resistivity
 MNOR       .OHMM                      : MicroNor     Micro-Normal Resistivity
 RD         .OHMM                      : DeepRes      Deep Induction Standard Processed Resistivity
 RS         .OHMM                      : ShalRes      Short Normal
 SP         .MV                        : SP           Spontaneous Potential
 RHOB       .G/C3                      : Density      Bulk Density
 LAT        .OHMM                      : DeepRes      Deep Induction Standard Processed Resistivity
 SIGM       .CU                        : sigma        5  RST Sigma
 TPHI       .m3/m3                     : tdt          6  RST Porosity
 SIGM       .CU                        : sigma        5  RST Sigma
 RW_25C     .                          :              
 SPbu       .MV                        : SP           Spontaneous Potential
~P IP parameters
#Name        Value                 Description
#----- --------------------------  -----------
#Logging Run 
 RUN  .     1                                           : Run Number
 DATE .     09/14/1977                                  : Date                      | RUN[0]
 BS   .     8                                           : Bit Size                  | RUN[1]
 DFT  .     /                                           : Type of Fluid in Hole     | RUN[1]
 DFD  .     1                                           : Mud Weight                | RUN[1]
 RMF  .     .82                                         : Rmf                       | RUN[1]
 MFST .     18                                          : at Meas Temp              | RUN[1]
 BHT  .     75                                          : BHT                       | RUN[1]
 TLAB .     ????/12/10                                  : Time at Bottom            | RUN[1]
 R1   .     Teufe korreliert an SLB-IEL vom 13.09.1977  : Remark 1                  | RUN[1]
 RW   .     1                                           : Rw                        | RUN[1]
 CSIZ .     7                                           : Casing Size               | RUN[1]
~A  DEPTH    HAZI     HDEVI      TVD      TVDSS       BS       Bsal     K_reg      Temp      PHIE      PHIT       SW       SXO       VCL       CGDN     CPERM      CPOR     Block     Layer      CALI       GR       MINV      MLL       MNOR       RD        RS        SP       RHOB      LAT       SIGM      TPHI      SIGM     RW_25C     SPbu   
# ...
 592.5312   50.0000    0.9000  592.4979  423.2679    9.6250 7800.0000    0.0100   40.6321    0.0001    0.3091    1.0000    1.0000    0.8828 -999.0000 -999.0000   -9.9900    3.0000    3.0000    9.6121   55.2976    1.7101    2.2332    1.4996    1.5971    2.5371   -1.6406    2.1779    1.5971   34.1636    0.4734   34.1636    0.1800   48.7040 
 592.6836   50.0000    0.9000  592.6503  423.4203    9.6250 7800.0000    0.0100   40.6400    0.0001    0.2930    1.0000    1.0000    0.8367 -999.0000 -999.0000   -9.9900    3.0000    3.0000    9.7882   51.1435    3.1079    3.0246    2.7567    1.7460    2.6511   -2.2866    2.2633    1.7460   34.9128    0.4594   34.9128    0.1800   48.0373 
 592.8360   50.0000    0.9000  592.8027  423.5727    9.6250 7800.0000    0.0100   40.6479    0.0001    0.2908    1.0000    1.0000    0.8304 -999.0000 -999.0000   -9.9900    3.0000    3.0000   10.1501   47.4132    4.2166    4.1343    3.1933    1.9270    2.7603   -2.3748    2.3408    1.9270   33.5643    0.4249   33.5643    0.1800   47.9283 
 592.9884   50.0000    0.9000  592.9551  423.7251    9.6250 7800.0000    0.0100   40.6558    0.0005    0.2754    1.0000    1.0000    0.7856 -999.0000 -999.0000   -9.9900    3.0000    3.0000   10.4300   43.5568    2.5898    9.0307    3.9405    2.1118    2.9110   -3.0019    2.3769    2.1118   31.8460    0.3915   31.8460    0.1800   47.2805 
 593.1408   50.0000    0.9000  593.1074  423.8774    9.6250 7800.0000    0.0100   40.6637    0.0018    0.2580    1.0000    1.0000    0.7321 -999.0000 -999.0000   -9.9900    3.0000    3.0000   10.5173   40.3360    5.0123    6.6068    4.9139    2.2969    3.2027   -3.7503    2.3851    2.2969   29.1169    0.3600   29.1169    0.1800   46.5113 
 593.2932   50.0000    0.9000  593.2598  424.0298    9.6250 7800.0000    0.0100   40.6715    0.0022    0.2552    1.0000    1.0000    0.7231 -999.0000 -999.0000   -9.9900    3.0000    3.0000   10.3951   40.5425    5.0249    5.3478    4.9950    2.4819    3.5138   -3.8766    2.3922    2.4819   27.1198    0.3429   27.1198    0.1800   46.3642 
 593.4456   50.0000    0.9000  593.4122  424.1822    9.6250 7800.0000    0.0100   40.6794    0.0023    0.2546    1.0000    1.0000    0.7209 -999.0000 -999.0000   -9.9900    3.0000    3.0000   10.3528   40.2772    1.3790    2.9154    2.6874    2.6728    3.9198   -3.9080    2.3745    2.6728   25.6470    0.3320   25.6470    0.1800   46.3121 
 593.5980   50.0000    0.9000  593.5646  424.3346    9.6250 7800.0000    0.0100   40.6873    0.0022    0.2547    1.0000    1.0000    0.7212 -999.0000 -999.0000   -9.9900    3.0000    3.0000   10.3506   40.5617    2.1008    3.2554    1.7016    2.7352    4.0077   -3.9030    2.3962    2.7352   24.5982    0.3376   24.5982    0.1800   46.2962 
 593.7504   50.0000    0.9000  593.7170  424.4870    9.6250 7800.0000    0.0100   40.6952    0.0014    0.2612    1.0000    1.0000    0.7422 -999.0000 -999.0000   -9.9900    3.0000    3.0000   10.4682   44.0041    1.6417    3.1669    1.8912    2.7291    3.9263   -3.6094    2.3867    2.7291   25.2857    0.3609   25.2857    0.1800   46.5692 
 593.9028   50.0000    0.9000  593.8693  424.6393    9.6250 7800.0000    0.0100   40.7030    0.0005    0.2749    1.0000    1.0000    0.7841 -999.0000 -999.0000   -9.9900    3.0000    3.0000   10.4930   45.0671    1.0629    1.2984    1.3485    2.5160    3.9360   -3.0226    2.2758    2.5160   26.8727    0.3836   26.8727    0.1800   47.1352 
 594.0552   50.0000    0.9000  594.0217  424.7917    9.6250 7800.0000    0.0100   40.7109    0.0002    0.2853    1.0000    1.0000    0.8145 -999.0000 -999.0000   -9.9900    3.0000    3.0000   10.3602   45.5937    1.1427    1.4365    1.0933    2.3062    3.5241   -2.5969    2.2093    2.3062   29.1224    0.4161   29.1224    0.1800   47.5401 
 594.2076   50.0000    0.9000  594.1741  424.9441    9.6250 7800.0000    0.0100   40.7188    0.0001    0.3057    1.0000    1.0000    0.8732 -999.0000 -999.0000   -9.9900    3.0000    3.0000   10.3333   45.7770    1.3523    1.6041    1.2768    2.1302    3.1838   -1.7753    2.1798    2.1302   30.5910    0.4354   30.5910    0.1800   48.3409 
 594.3600   50.0000    0.9000  594.3265  425.0965    9.6250 7800.0000    0.0100   40.7267    0.0002    0.2854    1.0000    1.0000    0.8147 -999.0000 -999.0000   -9.9900    3.0000    3.0000   10.3406   45.5056    1.3922    1.5386    1.3325    1.9525    3.0000   -2.5943    2.1749    1.9525   31.7633    0.4494   31.7633    0.1800   47.5012 
 594.5124   50.0000    0.9000  594.4789  425.2489    9.6250 7800.0000    0.0100   40.7346    0.0005    0.2763    1.0000    1.0000    0.7880 -999.0000 -999.0000   -9.9900    3.0000    3.0000   10.4334   45.1368    1.3224    1.5264    1.3225    1.7705    2.9066   -2.9676    2.2099    1.7705   32.1254    0.4419   32.1254    0.1800   47.1071 
 594.6648   50.0000    0.9000  594.6312  425.4013    9.6250 7800.0000    0.0100   40.7424    0.0008    0.2696    1.0000    1.0000    0.7680 -999.0000 -999.0000   -9.9900    3.0000    3.0000   10.5757   46.3071    1.3124    1.7265    1.2725    1.6660    2.8103   -3.2476    2.2364    1.6660   32.0179    0.4405   32.0179    0.1800   46.8064 
 594.8172   50.0000    0.9000  594.7836  425.5536    9.6250 7800.0000    0.0100   40.7503    0.0007    0.2713    1.0000    1.0000    0.7734 -999.0000 -999.0000   -9.9900    3.0000    3.0000   10.5565   47.6715    1.3224    1.8077    1.2824    1.5788    2.7204   -3.1725    2.2176    1.5788   32.1235    0.4375   32.1235    0.1800   46.8607 
 594.9696   50.0000    0.9000  594.9360  425.7060    9.6250 7800.0000    0.0100   40.7582    0.0003    0.2799    1.0000    1.0000    0.7988 -999.0000 -999.0000   -9.9900    3.0000    3.0000   10.4892   49.5774    1.2725    1.4104    1.2325    1.5527    2.6905   -2.8171    2.2047    1.5527   32.3016    0.4427   32.3016    0.1800   47.1953 
 595.1220   50.0000    0.9000  595.0884  425.8584    9.6250 7800.0000    0.0100   40.7661    0.0001    0.2919    1.0000    1.0000    0.8338 -999.0000 -999.0000   -9.9900    3.0000    3.0000   10.4288   49.5449    1.1128    1.6041    1.0828    1.5535    2.6769   -2.3274    2.2027    1.5535   32.7134    0.4462   32.7134    0.1800   47.6643 
 595.2744   50.0000    0.9000  595.2408  426.0108    9.6250 7800.0000    0.0100   40.7739    0.0001    0.2927    1.0000    1.0000    0.8360 -999.0000 -999.0000   -9.9900    3.0000    3.0000   10.3021   50.5876    1.2625    1.9102    1.2704    1.6031    2.6415   -2.2964    2.1993    1.6031   32.9020    0.4555   32.9020    0.1800   47.6746 
 595.4268   50.0000    0.9000  595.3932  426.1632    9.6250 7800.0000    0.0100   40.7818    0.0002    0.2904    1.0000    1.0000    0.8293 -999.0000 -999.0000   -9.9900    3.0000    3.0000   10.3307   49.9309    1.7016    2.1926    1.5719    1.6168    2.6079   -2.3899    2.1973    1.6168   33.3676    0.4598   33.3676    0.1800   47.5603 
 595.5792   50.0000    0.9000  595.5455  426.3155    9.6250 7800.0000    0.0100   40.7897    0.0002    0.2897    1.0000    1.0000    0.8274 -999.0000 -999.0000   -9.9900    3.0000    3.0000   10.2665   51.2862    1.5034    1.8244    1.5719    1.6168    2.6251   -2.4168    2.2061    1.6168   33.6556    0.4564   33.6556    0.1800   47.5126 
 595.7316   50.0000    0.9000  595.6979  426.4679    9.6250 7800.0000    0.0100   40.7976    0.0001    0.2954    1.0000    1.0000    0.8438 -999.0000 -999.0000   -9.9900    3.0000    3.0000   10.3402   54.0726    1.4802    2.7590    1.4421    1.6168    2.6524   -2.1866    2.2211    1.6168   32.9637    0.4431   32.9637    0.1800   47.7220 
 595.8840   50.0000    0.9000  595.8503  426.6203    9.6250 7800.0000    0.0100   40.8055    0.0001    0.2958    1.0000    1.0000    0.8448 -999.0000 -999.0000   -9.9900    3.0000    3.0000   10.4608   53.7221    1.2300    1.5462    1.3446    1.6168    2.6605   -2.1727    2.2234    1.6168   32.4878    0.4266   32.4878    0.1800   47.7152 
 596.0364   50.0000    0.9000  596.0027  426.7727    9.6250 7800.0000    0.0100   40.8133    0.0002    0.2861    1.0000    1.0000    0.8169 -999.0000 -999.0000   -9.9900    3.0000    3.0000   10.3719   53.9668    1.0008    1.6189    1.0364    1.6168    2.6708   -2.5630    2.1828    1.6168   31.5144    0.4197   31.5144    0.1800   47.3041 
