~VERSION INFORMATION
 VERS.                 2.0:   CWLS LOG ASCII STANDARD - VERSION 2.0
 WRAP.                  NO:   SINGLE LINE PER DEPTH STEP
 CREA.                 01/24/2018 18:21:00
#CREATED USING IP VERSION 4.4.2017.271 BY STROBEJO ON 01/24/2018 18:21:00
~WELL INFORMATION
#MNEM.UNIT       DATA                          DESCRIPTION MNEMONIC
#---------      ---------------------------   --------------------------
 STRT    .M         0.0000                    : START DEPTH
 STOP    .M         1062.9900                 : STOP DEPTH
 STEP    .M         0.1524                    : STEP VALUE
 NULL    .      -999.0000                     : NULL VALUE
 DATE    .      01/24/2018                    : LAS file Creation Date
 WELL  .      Landau 172     : Well Name
 COM1  .      WH             : Well Comment
 COMP  .      Wintershall    : Company
 FLD   .      Landau         : Field
 STATE .      Rheinl.-Pfalz  : State
 COUNT .      Germany        : Country
 API   .      252449617201   : API Number
 UWI   .      252449617201   : Unique Well Identifier (UWI)
 LOC   .                     : Location
 LATI  .      5453494.46     : Latitude/Northing
 LONG  .      436438.29      : Longitude/Easting
 PDAT  .      Mean Sea Level : Permanent Datum
 EPDAT .      0.0000         : Elevation of Permanent Datum
 LGMEA .      GL             : Log Measured from
 DRMEA .      GL             : Drill Measured From
 APDAT .      169.23         : Elevation Above Permanent Datum
 GL    .      169.23         : GL Elevation
 RWS   .      0              : Def_Rw
 WST   .      0              : Def_Rwt
 UTMZ  .      32             : UTM Zone
 DATS  .      28.08.1977     : Spud Date
 COMD  .      15.09.1977     : Completion Date
 BHS   .      Producer - Oil : Completion Status
 CNTY  .      Landau/Pfalz   : County
 PROV  .                     : Province
 MDEC  .      0              : Magnetic Declination
 SRVC  .      SCH            : Contractor
~CURVE INFORMATION
#MNEM              UNIT       API CODE   Curve Type  Comments
#----------  --------------- ----------  ----------- -----------
 DEPTH      .M                         : Depth        
 HAZI       .Deg                       : Azimuth      
 HDEVI      .Deg                       : Deviation    
 TVD        .M                         : Depth        
 TVDSS      .M                         : Depth        
 BS         .inch                      : BitSize      
 Bsal       .ppm                       : BitSize      
 K_reg      .mD                        :              
 Temp       .C                         : Temp         
 PHIE       .Dec                       : Phi          
 PHIT       .Dec                       : PhiT         
 SW         .Dec                       : Sw           
 SXO        .Dec                       : Sxo          
 VCL        .Dec                       : Vcl          
 CGDN       .g/c3                      : CoreGD       
 CPERM      .md                        : CorePerm     
 CPOR       .v/v                       : CorePhi      
 Block      .                          :              
 Layer      .                          :              
 CALI       .IN                        : Caliper      Caliper
 GR         .GAPI                      : GammaRay     Gamma Ray
 MINV       .OHMM                      : MicroInvers  Micro-Inverse Resistivity
 MLL        .OHMM                      : MicroRes     Mll Resistivity
 MNOR       .OHMM                      : MicroNor     Micro-Normal Resistivity
 RD         .OHMM                      : DeepRes      Deep Induction Standard Processed Resistivity
 RS         .OHMM                      : ShalRes      Short Normal
 SP         .MV                        : SP           Spontaneous Potential
 RHOB       .G/C3                      : Density      Bulk Density
 LAT        .OHMM                      : DeepRes      Deep Induction Standard Processed Resistivity
 SIGM       .CU                        : sigma        5  RST Sigma
 TPHI       .m3/m3                     : tdt          6  RST Porosity
 SIGM       .CU                        : sigma        5  RST Sigma
 RW_25C     .                          :              
 SPbu       .MV                        : SP           Spontaneous Potential
~P IP parameters
#Name        Value                 Description
#----- --------------------------  -----------
#Logging Run 
 RUN  .     1                                           : Run Number
 DATE .     09/14/1977                                  : Date                      | RUN[0]
 BS   .     8                                           : Bit Size                  | RUN[1]
 DFT  .     /                                           : Type of Fluid in Hole     | RUN[1]
 DFD  .     1                                           : Mud Weight                | RUN[1]
 RMF  .     .82                                         : Rmf                       | RUN[1]
 MFST .     18                                          : at Meas Temp              | RUN[1]
 BHT  .     75                                          : BHT                       | RUN[1]
 TLAB .     ????/12/10                                  : Time at Bottom            | RUN[1]
 R1   .     Teufe korreliert an SLB-IEL vom 13.09.1977  : Remark 1                  | RUN[1]
 RW   .     1                                           : Rw                        | RUN[1]
 CSIZ .     7                                           : Casing Size               | RUN[1]
~A  DEPTH    HAZI     HDEVI      TVD      TVDSS       BS       Bsal     K_reg      Temp      PHIE      PHIT       SW       SXO       VCL       CGDN     CPERM      CPOR     Block     Layer      CALI       GR       MINV      MLL       MNOR       RD        RS        SP       RHOB      LAT       SIGM      TPHI      SIGM     RW_25C     SPbu   
# ...
 705.9168   85.0000    0.7350  705.8712  536.6412    9.6250 7800.0000    0.0100   46.4935    0.0020    0.2560    1.0000    1.0000    0.7257 -999.0000 -999.0000   -9.9900    3.0000    3.0000    9.4849   47.4579    1.0729    1.2063    0.9930    1.4279    2.5560   -3.8400    2.1264    1.4279   33.5429    0.4832   33.5429    0.1800   40.1446 
 706.0692   85.0000    0.7360  706.0236  536.7936    9.6250 7800.0000    0.0100   46.5014    0.0033    0.2494    1.0000    1.0000    0.7030 -999.0000 -999.0000   -9.9900    3.0000    3.0000    9.4527   47.4753    1.0429    1.3847    0.9830    1.3248    2.4961   -4.1580    2.1835    1.3248   33.5558    0.4825   33.5558    0.1800   39.8439 
 706.2216   85.0000    0.7369  706.1760  536.9460    9.6250 7800.0000    0.0100   46.5093    0.0050    0.2442    1.0000    1.0000    0.6835 -999.0000 -999.0000   -9.9900    3.0000    3.0000    9.2667   45.9208    1.0732    1.1844    0.9830    1.2528    2.4178   -4.4316    2.1825    1.2528   33.7861    0.4815   33.7861    0.1800   39.5877 
 706.3740   85.0000    0.7378  706.3284  537.0984    9.6250 7800.0000    0.0100   46.5172    0.0059    0.2423    1.0000    1.0000    0.6753 -999.0000 -999.0000   -9.9900    3.0000    3.0000    9.2150   45.7254    1.0721    1.5041    1.0030    1.2051    2.3032   -4.5456    2.1855    1.2051   34.1456    0.4813   34.1456    0.1800   39.4911 
 706.5264   85.0000    0.7387  706.4808  537.2508    9.6250 7800.0000    0.0100   46.5251    0.0128    0.2351    1.0000    1.0000    0.6353 -999.0000 -999.0000   -9.9900    3.0000    3.0000    9.6159   49.1284    1.0907    1.4104    1.0230    1.1800    2.2450   -5.1060    2.1939    1.1800   34.2010    0.4797   34.2010    0.1800   38.9481 
 706.6788   85.0000    0.7396  706.6332  537.4032    9.6250 7800.0000    0.0100   46.5329    0.0074    0.2399    1.0000    1.0000    0.6643 -999.0000 -999.0000   -9.9900    3.0000    3.0000    9.5333   50.8466    1.0207    1.1628    0.9731    1.1917    2.2234   -4.6997    2.1752    1.1917   33.8043    0.4809   33.8043    0.1800   39.3717 
 706.8312   85.0000    0.7405  706.7856  537.5556    9.6250 7800.0000    0.0100   46.5408    0.0079    0.2392    1.0000    1.0000    0.6607 -999.0000 -999.0000   -9.9900    3.0000    3.0000    9.6440   50.5243    0.9936    1.2287    0.9431    1.2081    2.2017   -4.7501    2.1517    1.2081   34.1459    0.4815   34.1459    0.1800   39.3386 
 706.9836   85.0000    0.7414  706.9379  537.7080    9.6250 7800.0000    0.0100   46.5487    0.0086    0.2383    1.0000    1.0000    0.6564 -999.0000 -999.0000   -9.9900    3.0000    3.0000    9.5746   51.4097    1.0735    1.0964    1.0443    1.2243    2.1930   -4.8110    2.1506    1.2243   33.9091    0.4821   33.9091    0.1800   39.2951 
 707.1360   85.0000    0.7424  707.0903  537.8603    9.6250 7800.0000    0.0100   46.5566    0.0109    0.2363    1.0000    1.0000    0.6439 -999.0000 -999.0000   -9.9900    3.0000    3.0000    9.6108   51.0887    1.1521    1.2422    1.1040    1.2404    2.2385   -4.9854    2.1622    1.2404   33.8187    0.4750   33.8187    0.1800   39.1382 
 707.2884   85.0000    0.7433  707.2427  538.0127    9.6250 7800.0000    0.0100   46.5644    0.0110    0.2362    1.0000    1.0000    0.6434 -999.0000 -999.0000   -9.9900    3.0000    3.0000    9.8021   50.0654    0.8383    1.4063    1.0828    1.2584    2.3173   -4.9926    2.1996    1.2584   32.7883    0.4694   32.7883    0.1800   39.1483 
 707.4408   85.0000    0.7442  707.3951  538.1651    9.6250 7800.0000    0.0100   46.5723    0.0140    0.2346    1.0000    1.0000    0.6302 -999.0000 -999.0000   -9.9900    3.0000    3.0000    9.8248   48.0462    0.8172    1.1927    1.0729    1.3627    2.3962   -5.1770    2.2054    1.3627   32.5820    0.4655   32.5820    0.1800   38.9813 
 707.5932   85.0000    0.7451  707.5475  538.3175    9.6250 7800.0000    0.0100   46.5802    0.0078    0.2392    1.0000    1.0000    0.6611 -999.0000 -999.0000   -9.9900    3.0000    3.0000    9.8508   48.2565    2.1097    1.8603    1.1926    1.4867    2.4578   -4.7442    2.1982    1.4867   32.2177    0.4592   32.2177    0.1800   39.4314 
 707.7456   85.0000    0.7460  707.6999  538.4699    9.6250 7800.0000    0.0100   46.5881    0.0039    0.2474    1.0000    1.0000    0.6958 -999.0000 -999.0000   -9.9900    3.0000    3.0000   10.2185   48.2171    4.3583    5.5481    2.9867    1.6866    2.6248   -4.2587    2.2274    1.6866   31.7778    0.4256   31.7778    0.1800   39.9343 
 707.8980   85.0000    0.7469  707.8523  538.6223    9.6250 7800.0000    0.0100   46.5960    0.0021    0.2557    1.0000    1.0000    0.7247 -999.0000 -999.0000   -9.9900    3.0000    3.0000   10.2553   48.4963    5.0034    8.7047    4.8553    1.8957    2.8488   -3.8545    2.2793    1.8957   29.9141    0.3853   29.9141    0.1800   40.3560 
 708.0504   85.0000    0.7478  708.0047  538.7747    9.6250 7800.0000    0.0100   46.6038    0.0024    0.2540    1.0000    1.0000    0.7190 -999.0000 -999.0000   -9.9900    3.0000    3.0000   10.2324   48.1909    5.0021    5.3972    5.1148    2.1239    3.1912   -3.9334    2.3407    2.1239   27.1788    0.3604   27.1788    0.1800   40.2944 
 708.2028   85.0000    0.7488  708.1570  538.9271    9.6250 7800.0000    0.0100   46.6117    0.0023    0.2546    1.0000    1.0000    0.7210 -999.0000 -999.0000   -9.9900    3.0000    3.0000   10.3108   45.0094    5.0135    6.3100    4.5059    2.3514    3.5474   -3.9053    2.3686    2.3514   24.6158    0.3541   24.6158    0.1800   40.3399 
 708.3552   85.0000    0.7497  708.3094  539.0794    9.6250 7800.0000    0.0100   46.6196    0.0023    0.2545    1.0000    1.0000    0.7207 -999.0000 -999.0000   -9.9900    3.0000    3.0000   10.4272   40.5924    4.9802    6.1384    3.8473    2.6454    4.1998   -3.9101    2.3917    2.6454   23.5358    0.3592   23.5358    0.1800   40.3525 
 708.5076   85.0000    0.7506  708.4618  539.2318    9.6250 7800.0000    0.0100   46.6275    0.0032    0.2498    1.0000    1.0000    0.7043 -999.0000 -999.0000   -9.9900    3.0000    3.0000   10.5182   38.7290    3.0289    2.2957    3.1587    2.9637    4.7694   -4.1395    2.4012    2.9637   23.9823    0.3580   23.9823    0.1800   40.1404 
 708.6600   85.0000    0.7515  708.6142  539.3842    9.6250 7800.0000    0.0100   46.6354    0.0026    0.2525    1.0000    1.0000    0.7138 -999.0000 -999.0000   -9.9900    3.0000    3.0000   10.5930   39.5602    4.3969    4.0218    3.5379    3.2259    4.9057   -4.0064    2.4167    3.2259   24.6366    0.3671   24.6366    0.1800   40.2909 
 708.8124   85.0000    0.7524  708.7666  539.5366    9.6250 7800.0000    0.0100   46.6432    0.0026    0.2529    1.0000    1.0000    0.7152 -999.0000 -999.0000   -9.9900    3.0000    3.0000   10.6884   39.2107    2.5299    2.2957    2.5898    3.4497    4.7968   -3.9872    2.3794    3.4497   25.4989    0.3705   25.4989    0.1800   40.3275 
 708.9648   85.0000    0.7533  708.9190  539.6890    9.6250 7800.0000    0.0100   46.6511    0.0019    0.2569    1.0000    1.0000    0.7285 -999.0000 -999.0000   -9.9900    3.0000    3.0000   10.6832   39.0867    2.5699    8.1622    4.3767    3.5334    4.6966   -3.8009    2.3636    3.5334   26.2034    0.3732   26.2034    0.1800   40.5311 
 709.1172   85.0000    0.7542  709.0714  539.8414    9.6250 7800.0000    0.0100   46.6590    0.0012    0.2628    1.0000    1.0000    0.7473 -999.0000 -999.0000   -9.9900    3.0000    3.0000   10.7991   38.4028    4.9950    5.7559    4.9916    3.5266    4.5791   -3.5380    2.3555    3.5266   26.4521    0.3739   26.4521    0.1800   40.8114 
 709.2696   85.0000    0.7552  709.2238  539.9938    9.6250 7800.0000    0.0100   46.6669    0.0004    0.2790    1.0000    1.0000    0.7961 -999.0000 -999.0000   -9.9900    3.0000    3.0000   10.4655   37.6161    5.0050    4.0490    4.1491    3.2047    4.5726   -2.8543    2.3550    3.2047   26.0804    0.3732   26.0804    0.1800   41.5125 
 709.4220   85.0000    0.7561  709.3761  540.1461    9.6250 7800.0000    0.0100   46.6747    0.0004    0.2789    1.0000    1.0000    0.7959 -999.0000 -999.0000   -9.9900    3.0000    3.0000   10.4341   37.5256    2.7495    3.2227    2.7522    2.9145    4.4254   -2.8581    2.3626    2.9145   25.4163    0.3718   25.4163    0.1800   41.5261 
