~VERSION INFORMATION
 VERS.                 2.0:   CWLS LOG ASCII STANDARD - VERSION 2.0
 WRAP.                  NO:   SINGLE LINE PER DEPTH STEP
 CREA.                 01/24/2018 18:21:00
#CREATED USING IP VERSION 4.4.2017.271 BY STROBEJO ON 01/24/2018 18:21:00
~WELL INFORMATION
#MNEM.UNIT       DATA                          DESCRIPTION MNEMONIC
#---------      ---------------------------   --------------------------
 STRT    .M         0.0000                    : START DEPTH
 STOP    .M         1062.9900                 : STOP DEPTH
 STEP    .M         0.1524                    : STEP VALUE
 NULL    .      -999.0000                     : NULL VALUE
 DATE    .      01/24/2018                    : LAS file Creation Date
 WELL  .      Landau 172     : Well Name
 COM1  .      WH             : Well Comment
 COMP  .      Wintershall    : Company
 FLD   .      Landau         : Field
 STATE .      Rheinl.-Pfalz  : State
 COUNT .      Germany        : Country
 API   .      252449617201   : API Number
 UWI   .      252449617201   : Unique Well Identifier (UWI)
 LOC   .                     : Location
 LATI  .      5453494.46     : Latitude/Northing
 LONG  .      436438.29      : Longitude/Easting
 PDAT  .      Mean Sea Level : Permanent Datum
 EPDAT .      0.0000         : Elevation of Permanent Datum
 LGMEA .      GL             : Log Measured from
 DRMEA .      GL             : Drill Measured From
 APDAT .      169.23         : Elevation Above Permanent Datum
 GL    .      169.23         : GL Elevation
 RWS   .      0              : Def_Rw
 WST   .      0              : Def_Rwt
 UTMZ  .      32             : UTM Zone
 DATS  .      28.08.1977     : Spud Date
 COMD  .      15.09.1977     : Completion Date
 BHS   .      Producer - Oil : Completion Status
 CNTY  .      Landau/Pfalz   : County
 PROV  .                     : Province
 MDEC  .      0              : Magnetic Declination
 SRVC  .      SCH            : Contractor
~CURVE INFORMATION
#MNEM              UNIT       API CODE   Curve Type  Comments
#----------  --------------- ----------  ----------- -----------
 DEPTH      .M                         : Depth        
 HAZI       .Deg                       : Azimuth      
 HDEVI      .Deg                       : Deviation    
 TVD        .M                         : Depth        
 TVDSS      .M                         : Depth        
 BS         .inch                      : BitSize      
 Bsal       .ppm                       : BitSize      
 K_reg      .mD                        :              
 Temp       .C                         : Temp         
 PHIE       .Dec                       : Phi          
 PHIT       .Dec                       : PhiT         
 SW         .Dec                       : Sw           
 SXO        .Dec                       : Sxo          
 VCL        .Dec                       : Vcl          
 CGDN       .g/c3                      : CoreGD       
 CPERM      .md                        : CorePerm     
 CPOR       .v/v                       : CorePhi      
 Block      .                          :              
 Layer      .                          :              
 CALI       .IN                        : Caliper      Caliper
 GR         .GAPI                      : GammaRay     Gamma Ray
 MINV       .OHMM                      : MicroInvers  Micro-Inverse Resistivity
 MLL        .OHMM                      : MicroRes     Mll Resistivity
 MNOR       .OHMM                      : MicroNor     Micro-Normal Resistivity
 RD         .OHMM                      : DeepRes      Deep Induction Standard Processed Resistivity
 RS         .OHMM                      : ShalRes      Short Normal
 SP         .MV                        : SP           Spontaneous Potential
 RHOB       .G/C3                      : Density      Bulk Density
 LAT        .OHMM                      : DeepRes      Deep Induction Standard Processed Resistivity
 SIGM       .CU                        : sigma        5  RST Sigma
 TPHI       .m3/m3                     : tdt          6  RST Porosity
 SIGM       .CU                        : sigma        5  RST Sigma
 RW_25C     .                          :              
 SPbu       .MV                        : SP           Spontaneous Potential
~P IP parameters
#Name        Value                 Description
#----- --------------------------  -----------
#Logging Run 
 RUN  .     1                                           : Run Number
 DATE .     09/14/1977                                  : Date                      | RUN[0]
 BS   .     8                                           : Bit Size                  | RUN[1]
 DFT  .     /                                           : Type of Fluid in Hole     | RUN[1]
 DFD  .     1                                           : Mud Weight                | RUN[1]
 RMF  .     .82                                         : Rmf                       | RUN[1]
 MFST .     18                                          : at Meas Temp              | RUN[1]
 BHT  .     75                                          : BHT                       | RUN[1]
 TLAB .     ????/12/10                                  : Time at Bottom            | RUN[1]
 R1   .     Teufe korreliert an SLB-IEL vom 13.09.1977  : Remark 1                  | RUN[1]
 RW   .     1                                           : Rw                        | RUN[1]
 CSIZ .     7                                           : Casing Size               | RUN[1]
~A  DEPTH    HAZI     HDEVI      TVD      TVDSS       BS       Bsal     K_reg      Temp      PHIE      PHIT       SW       SXO       VCL       CGDN     CPERM      CPOR     Block     Layer      CALI       GR       MINV      MLL       MNOR       RD        RS        SP       RHOB      LAT       SIGM      TPHI      SIGM     RW_25C     SPbu   
# ...
 764.4384   83.6697    0.9706  764.3856  595.1556    9.6250 7800.0000    0.0210   49.5187    0.0001    0.2617    1.0000    1.0000    0.7475 -999.0000 -999.0000   -9.9900    3.0000    4.0000   10.2021   39.7471    3.5136   12.2309    2.1603    2.3809    4.0053   -3.5347    2.2554    2.3809   28.4806    0.3929   28.4806    0.1200   42.6668 
 764.5908   83.6552    0.9702  764.5380  595.3080    9.6250 7800.0000    0.0210   49.5266    0.0001    0.2634    1.0000    1.0000    0.7523 -999.0000 -999.0000   -9.9900    3.0000    4.0000   10.4157   39.7228    4.9950    5.1076    4.0269    2.4274    4.0883   -3.4677    2.3137    2.4274   28.5297    0.3805   28.5297    0.1200   42.7457 
 764.7432   83.6406    0.9699  764.6904  595.4604    9.6250 7800.0000    0.0211   49.5345    0.0001    0.2490    1.0000    1.0000    0.7110 -999.0000 -999.0000   -9.9900    3.0000    4.0000    9.6998   38.6268    3.9645   10.1769    2.1806    2.4741    4.1157   -4.0461    2.3876    2.4741   27.3083    0.3727   27.3083    0.1200   42.1792 
 764.8956   83.6261    0.9696  764.8427  595.6127    9.6250 7800.0000    0.0212   49.5424    0.0003    0.2373    1.0000    1.0000    0.6770 -999.0000 -999.0000   -9.9900    3.0000    4.0000    9.8006   38.4639    2.3004    3.2487    2.5382    2.5211    4.2034   -4.5222    2.4093    2.5211   25.5179    0.3726   25.5179    0.1200   41.7150 
 765.0480   83.6115    0.9693  764.9951  595.7651    9.6250 7800.0000    0.0211   49.5502    0.0002    0.2423    1.0000    1.0000    0.6916 -999.0000 -999.0000   -9.9900    3.0000    4.0000    9.7170   40.9037    2.3303    3.9442    2.9491    2.5671    4.6002   -4.3182    2.3993    2.5671   24.8746    0.3761   24.8746    0.1200   41.9309 
 765.2004   83.5969    0.9690  765.1475  595.9175    9.6250 7800.0000    0.0210   49.5581    0.0001    0.2658    1.0000    1.0000    0.7590 -999.0000 -999.0000   -9.9900    3.0000    4.0000    9.7993   42.7983    3.2186    3.4400    2.2305    2.6433    4.6538   -3.3737    2.3674    2.6433   25.2620    0.3827   25.2620    0.1200   42.8873 
 765.3528   83.5823    0.9687  765.2999  596.0699    9.6250 7800.0000    0.0210   49.5660    0.0001    0.2805    1.0000    1.0000    0.8012 -999.0000 -999.0000   -9.9900    3.0000    4.0000    9.7965   43.7483    2.0010    4.5323    3.2385    2.6881    4.6015   -2.7837    2.3593    2.6881   26.5325    0.3874   26.5325    0.1200   43.4892 
 765.5052   83.5677    0.9684  765.4523  596.2223    9.6250 7800.0000    0.0210   49.5739    0.0001    0.2647    1.0000    1.0000    0.7561 -999.0000 -999.0000   -9.9900    3.0000    4.0000    9.7526   43.6970    2.6098    9.7198    2.6297    2.6697    4.4457   -3.4153    2.3580    2.6697   26.8884    0.3920   26.8884    0.1200   42.8695 
 765.6576   83.5531    0.9681  765.6046  596.3746    9.6250 7800.0000    0.0210   49.5818    0.0001    0.2700    1.0000    1.0000    0.7710 -999.0000 -999.0000   -9.9900    3.0000    4.0000    9.8181   43.1694    3.3982    2.5634    3.2585    2.6369    4.3195   -3.2055    2.3682    2.6369   26.8781    0.3948   26.8781    0.1200   43.0912 
 765.8100   83.5385    0.9678  765.7570  596.5270    9.6250 7800.0000    0.0210   49.5896    0.0001    0.2796    1.0000    1.0000    0.7987 -999.0000 -999.0000   -9.9900    3.0000    4.0000    9.7949   41.0656    2.8094    3.5688    1.8812    2.5433    4.1671   -2.8183    2.3665    2.5433   26.4698    0.4027   26.4698    0.1200   43.4903 
 765.9624   83.5239    0.9675  765.9094  596.6794    9.6250 7800.0000    0.0210   49.5975    0.0001    0.2842    1.0000    1.0000    0.8118 -999.0000 -999.0000   -9.9900    3.0000    4.0000    9.8448   38.2937    1.9711    2.5399    2.8293    2.5343    4.1896   -2.6354    2.3521    2.5343   26.8141    0.4075   26.8141    0.1200   43.6851 
 766.1148   83.5092    0.9672  766.0618  596.8318    9.6250 7800.0000    0.0210   49.6054    0.0001    0.2768    1.0000    1.0000    0.7906 -999.0000 -999.0000   -9.9900    3.0000    4.0000    9.8220   39.5506    3.2685    4.2110    2.2605    2.5612    4.4105   -2.9312    2.3483    2.5612   26.8498    0.4114   26.8498    0.1200   43.4012 
 766.2672   83.4946    0.9668  766.2141  596.9842    9.6250 7800.0000    0.0210   49.6133    0.0001    0.2762    1.0000    1.0000    0.7890 -999.0000 -999.0000   -9.9900    3.0000    4.0000    9.7622   41.3506    1.6916    2.7845    1.6916    2.6714    4.4601   -2.9547    2.3677    2.6714   26.9805    0.4063   26.9805    0.1200   43.3896 
 766.4196   83.4799    0.9665  766.3665  597.1365    9.6250 7800.0000    0.0210   49.6212    0.0001    0.2796    1.0000    1.0000    0.7986 -999.0000 -999.0000   -9.9900    3.0000    4.0000    9.7406   42.7572    2.5200    6.0990    2.1127    2.8260    4.6331   -2.8196    2.3698    2.8260   26.2107    0.4038   26.2107    0.1200   43.5366 
 766.5720   83.4652    0.9662  766.5189  597.2889    9.6250 7800.0000    0.0210   49.6290    0.0001    0.2656    1.0000    1.0000    0.7585 -999.0000 -999.0000   -9.9900    3.0000    4.0000    9.7702   43.3806    3.7375    5.5511    2.6355    3.0004    4.9186   -3.3812    2.3553    3.0004   26.3075    0.3930   26.3075    0.1200   42.9870 
 766.7244   83.4506    0.9659  766.6713  597.4413    9.6250 7800.0000    0.0210   49.6369    0.0001    0.2578    1.0000    1.0000    0.7362 -999.0000 -999.0000   -9.9900    3.0000    4.0000    9.6522   43.3349    3.4880    7.9355    3.1582    3.1911    5.3194   -3.6938    2.3440    3.1911   25.3619    0.3850   25.3619    0.1200   42.6862 
 766.8768   83.4359    0.9656  766.8237  597.5937    9.6250 7800.0000    0.0210   49.6448    0.0001    0.2499    1.0000    1.0000    0.7138 -999.0000 -999.0000   -9.9900    3.0000    4.0000    9.7246   41.7985    4.6557    4.8782    4.1068    3.3502    5.7155   -4.0073    2.3456    3.3502   24.2146    0.3750   24.2146    0.1200   42.3846 
 767.0292   83.4212    0.9653  766.9760  597.7460    9.6250 7800.0000    0.0211   49.6527    0.0002    0.2432    1.0000    1.0000    0.6944 -999.0000 -999.0000   -9.9900    3.0000    4.0000    9.5611   39.2389    4.1367    5.3478    3.6677    3.4750    6.1269   -4.2788    2.3629    3.4750   22.5323    0.3634   22.5323    0.1200   42.1251 
 767.1816   83.4065    0.9650  767.1284  597.8984    9.6250 7800.0000    0.0298   49.6605    0.0098    0.1917    1.0000    1.0000    0.5196 -999.0000 -999.0000   -9.9900    3.0000    4.0000    9.6484   35.1571    5.1347   15.3907    4.7555    3.4742    6.4037   -4.5014    2.4139    3.4742   21.8891    0.3566   21.8891    0.1200   41.9143 
 767.3340   83.3918    0.9647  767.2808  598.0508    9.6250 7800.0000    0.0338   49.6684    0.0133    0.1894    1.0000    1.0000    0.5032 -999.0000 -999.0000   -9.9900    3.0000    4.0000    9.7702   35.0260    1.6816   10.2709    3.8617    3.4389    6.4872   -4.7155    2.4282    3.4389   22.1352    0.3541   22.1352    0.1200   41.7122 
 767.4864   83.3770    0.9644  767.4332  598.2032    9.6250 7800.0000    0.0214   49.6763    0.0006    0.2280    1.0000    1.0000    0.6498 -999.0000 -999.0000   -9.9900    3.0000    4.0000    9.7909   36.6985    2.0447    2.8623    2.1008    3.3492    6.0089   -4.9027    2.4266    3.3492   22.6852    0.3649   22.6852    0.1200   41.5368 
 767.6388   83.3623    0.9641  767.5856  598.3556    9.6250 7800.0000    0.0213   49.6842    0.0005    0.2320    1.0000    1.0000    0.6615 -999.0000 -999.0000   -9.9900    3.0000    4.0000    9.8029   39.2246    2.9597    4.0964    3.0190    3.2151    5.4653   -4.7396    2.4425    3.2151   23.4502    0.3807   23.4502    0.1200   41.7118 
 767.7912   83.3475    0.9638  767.7379  598.5079    9.6250 7800.0000    0.0212   49.6921    0.0003    0.2370    1.0000    1.0000    0.6763 -999.0000 -999.0000   -9.9900    3.0000    4.0000    9.8144   41.4643    2.4963    3.5362    2.2808    3.0020    5.0834   -4.5318    2.3985    3.0020   24.3921    0.3943   24.3921    0.1200   41.9315 
 767.9436   83.3328    0.9634  767.8903  598.6603    9.6250 7800.0000    0.0211   49.6999    0.0002    0.2422    1.0000    1.0000    0.6914 -999.0000 -999.0000   -9.9900    3.0000    4.0000    9.7825   45.0521    1.8554    4.0507    2.5100    2.8269    4.7994   -4.3207    2.3764    2.8269   25.4389    0.3974   25.4389    0.1200   42.1545 
