~VERSION INFORMATION
 VERS.                 2.0:   CWLS LOG ASCII STANDARD - VERSION 2.0
 WRAP.                  NO:   SINGLE LINE PER DEPTH STEP
 CREA.                 01/24/2018 18:21:00
#CREATED USING IP VERSION 4.4.2017.271 BY STROBEJO ON 01/24/2018 18:21:00
~WELL INFORMATION
#MNEM.UNIT       DATA                          DESCRIPTION MNEMONIC
#---------      ---------------------------   --------------------------
 STRT    .M         0.0000                    : START DEPTH
 STOP    .M         1062.9900                 : STOP DEPTH
 STEP    .M         0.1524                    : STEP VALUE
 NULL    .      -999.0000                     : NULL VALUE
 DATE    .      01/24/2018                    : LAS file Creation Date
 WELL  .      Landau 172     : Well Name
 COM1  .      WH             : Well Comment
 COMP  .      Wintershall    : Company
 FLD   .      Landau         : Field
 STATE .      Rheinl.-Pfalz  : State
 COUNT .      Germany        : Country
 API   .      252449617201   : API Number
 UWI   .      252449617201   : Unique Well Identifier (UWI)
 LOC   .                     : Location
 LATI  .      5453494.46     : Latitude/Northing
 LONG  .      436438.29      : Longitude/Easting
 PDAT  .      Mean Sea Level : Permanent Datum
 EPDAT .      0.0000         : Elevation of Permanent Datum
 LGMEA .      GL             : Log Measured from
 DRMEA .      GL             : Drill Measured From
 APDAT .      169.23         : Elevation Above Permanent Datum
 GL    .      169.23         : GL Elevation
 RWS   .      0              : Def_Rw
 WST   .      0              : Def_Rwt
 UTMZ  .      32             : UTM Zone
 DATS  .      28.08.1977     : Spud Date
 COMD  .      15.09.1977     : Completion Date
 BHS   .      Producer - Oil : Completion Status
 CNTY  .      Landau/Pfalz   : County
 PROV  .                     : Province
 MDEC  .      0              : Magnetic Declination
 SRVC  .      SCH            : Contractor
~CURVE INFORMATION
#MNEM              UNIT       API CODE   Curve Type  Comments
#----------  --------------- ----------  ----------- -----------
 DEPTH      .M                         : Depth        
 HAZI       .Deg                       : Azimuth      
 HDEVI      .Deg                       : Deviation    
 TVD        .M                         : Depth        
 TVDSS      .M                         : Depth        
 BS         .inch                      : BitSize      
 Bsal       .ppm                       : BitSize      
 K_reg      .mD                        :              
 Temp       .C                         : Temp         
 PHIE       .Dec                       : Phi          
 PHIT       .Dec                       : PhiT         
 SW         .Dec                       : Sw           
 SXO        .Dec                       : Sxo          
 VCL        .Dec                       : Vcl          
 CGDN       .g/c3                      : CoreGD       
 CPERM      .md                        : CorePerm     
 CPOR       .v/v                       : CorePhi      
 Block      .                          :              
 Layer      .                          :              
 CALI       .IN                        : Caliper      Caliper
 GR         .GAPI                      : GammaRay     Gamma Ray
 MINV       .OHMM                      : MicroInvers  Micro-Inverse Resistivity
 MLL        .OHMM                      : MicroRes     Mll Resistivity
 MNOR       .OHMM                      : MicroNor     Micro-Normal Resistivity
 RD         .OHMM                      : DeepRes      Deep Induction Standard Processed Resistivity
 RS         .OHMM                      : ShalRes      Short Normal
 SP         .MV                        : SP           Spontaneous Potential
 RHOB       .G/C3                      : Density      Bulk Density
 LAT        .OHMM                      : DeepRes      Deep Induction Standard Processed Resistivity
 SIGM       .CU                        : sigma        5  RST Sigma
 TPHI       .m3/m3                     : tdt          6  RST Porosity
 SIGM       .CU                        : sigma        5  RST Sigma
 RW_25C     .                          :              
 SPbu       .MV                        : SP           Spontaneous Potential
~P IP parameters
#Name        Value                 Description
#----- --------------------------  -----------
#Logging Run 
 RUN  .     1                                           : Run Number
 DATE .     09/14/1977                                  : Date                      | RUN[0]
 BS   .     8                                           : Bit Size                  | RUN[1]
 DFT  .     /                                           : Type of Fluid in Hole     | RUN[1]
 DFD  .     1                                           : Mud Weight                | RUN[1]
 RMF  .     .82                                         : Rmf                       | RUN[1]
 MFST .     18                                          : at Meas Temp              | RUN[1]
 BHT  .     75                                          : BHT                       | RUN[1]
 TLAB .     ????/12/10                                  : Time at Bottom            | RUN[1]
 R1   .     Teufe korreliert an SLB-IEL vom 13.09.1977  : Remark 1                  | RUN[1]
 RW   .     1                                           : Rw                        | RUN[1]
 CSIZ .     7                                           : Casing Size               | RUN[1]
~A  DEPTH    HAZI     HDEVI      TVD      TVDSS       BS       Bsal     K_reg      Temp      PHIE      PHIT       SW       SXO       VCL       CGDN     CPERM      CPOR     Block     Layer      CALI       GR       MINV      MLL       MNOR       RD        RS        SP       RHOB      LAT       SIGM      TPHI      SIGM     RW_25C     SPbu   
# ...
 248.7168    0.0000    0.6000  248.7099   79.4799    9.6250 7800.0000 -999.0000   22.8583 -999.0000 -999.0000 -999.0000 -999.0000    0.6728 -999.0000 -999.0000   -9.9900    3.0000    1.0000 -999.0000 -999.0000 -999.0000 -999.0000 -999.0000    3.7503    6.0087   -7.2165 -999.0000    3.7503 -999.0000 -999.0000 -999.0000    0.1800   58.0008 
 248.8692    0.0000    0.6000  248.8623   79.6323    9.6250 7800.0000 -999.0000   22.8662 -999.0000 -999.0000 -999.0000 -999.0000    0.6459 -999.0000 -999.0000   -9.9900    3.0000    1.0000 -999.0000 -999.0000 -999.0000 -999.0000 -999.0000    3.8173    6.0019   -7.7271 -999.0000    3.8173 -999.0000 -999.0000 -999.0000    0.1800   57.4903 
 249.0216    0.0000    0.6000  249.0147   79.7847    9.6250 7800.0000 -999.0000   22.8741 -999.0000 -999.0000 -999.0000 -999.0000    0.6961 -999.0000 -999.0000   -9.9900    3.0000    1.0000 -999.0000 -999.0000 -999.0000 -999.0000 -999.0000    3.8827    6.1001   -6.7733 -999.0000    3.8827 -999.0000 -999.0000 -999.0000    0.1800   58.4441 
 249.1740    0.0000    0.6000  249.1671   79.9371    9.6250 7800.0000 -999.0000   22.8819 -999.0000 -999.0000 -999.0000 -999.0000    0.6900 -999.0000 -999.0000   -9.9900    3.0000    1.0000 -999.0000 -999.0000 -999.0000 -999.0000 -999.0000    3.9669    6.3758   -6.8903 -999.0000    3.9669 -999.0000 -999.0000 -999.0000    0.1800   58.3271 
 249.3264    0.0000    0.6000  249.3195   80.0895    9.6250 7800.0000 -999.0000   22.8898 -999.0000 -999.0000 -999.0000 -999.0000    0.6784 -999.0000 -999.0000   -9.9900    3.0000    1.0000 -999.0000 -999.0000 -999.0000 -999.0000 -999.0000    4.0529    6.6582   -7.1112 -999.0000    4.0529 -999.0000 -999.0000 -999.0000    0.1800   58.1061 
 249.4788    0.0000    0.6000  249.4719   80.2419    9.6250 7800.0000 -999.0000   22.8977 -999.0000 -999.0000 -999.0000 -999.0000    0.7238 -999.0000 -999.0000   -9.9900    3.0000    1.0000 -999.0000 -999.0000 -999.0000 -999.0000 -999.0000    4.1312    6.7810   -6.2470 -999.0000    4.1312 -999.0000 -999.0000 -999.0000    0.1800   58.9704 
 249.6312    0.0000    0.6000  249.6243   80.3943    9.6250 7800.0000 -999.0000   22.9056 -999.0000 -999.0000 -999.0000 -999.0000    0.7491 -999.0000 -999.0000   -9.9900    3.0000    1.0000 -999.0000 -999.0000 -999.0000 -999.0000 -999.0000    4.1318    6.8158   -5.7666 -999.0000    4.1318 -999.0000 -999.0000 -999.0000    0.1800   59.4508 
 249.7836    0.0000    0.6000  249.7767   80.5467    9.6250 7800.0000 -999.0000   22.9135 -999.0000 -999.0000 -999.0000 -999.0000    0.7891 -999.0000 -999.0000   -9.9900    3.0000    1.0000 -999.0000 -999.0000 -999.0000 -999.0000 -999.0000    4.1318    6.8039   -5.0071 -999.0000    4.1318 -999.0000 -999.0000 -999.0000    0.1800   60.2103 
 249.9360    0.0000    0.6000  249.9291   80.6991    9.6250 7800.0000 -999.0000   22.9213 -999.0000 -999.0000 -999.0000 -999.0000    0.7881 -999.0000 -999.0000   -9.9900    3.0000    1.0000 -999.0000 -999.0000 -999.0000 -999.0000 -999.0000    4.1317    6.7448   -5.0264 -999.0000    4.1317 -999.0000 -999.0000 -999.0000    0.1800   60.1910 
 250.0884    0.0030    0.6000  250.0815   80.8515    9.6250 7800.0000 -999.0000   22.9292 -999.0000 -999.0000 -999.0000 -999.0000    0.7815 -999.0000 -999.0000   -9.9900    3.0000    1.0000 -999.0000 -999.0000 -999.0000 -999.0000 -999.0000    4.1321    6.6909   -5.1512 -999.0000    4.1321 -999.0000 -999.0000 -999.0000    0.1800   60.0662 
 250.2408    0.0192    0.6003  250.2339   81.0039    9.6250 7800.0000 -999.0000   22.9371 -999.0000 -999.0000 -999.0000 -999.0000    0.7754 -999.0000 -999.0000   -9.9900    3.0000    1.0000 -999.0000 -999.0000 -999.0000 -999.0000 -999.0000    4.1572    6.5685   -5.2682 -999.0000    4.1572 -999.0000 -999.0000 -999.0000    0.1800   59.9492 
 250.3932    0.0369    0.6006  250.3862   81.1563    9.6250 7800.0000 -999.0000   22.9450 -999.0000 -999.0000 -999.0000 -999.0000    0.7681 -999.0000 -999.0000   -9.9900    3.0000    1.0000 -999.0000 -999.0000 -999.0000 -999.0000 -999.0000    4.1820    6.4580   -5.4054 -999.0000    4.1820 -999.0000 -999.0000 -999.0000    0.1800   59.8120 
 250.5456    0.0546    0.6009  250.5386   81.3086    9.6250 7800.0000 -999.0000   22.9528 -999.0000 -999.0000 -999.0000 -999.0000    0.7203 -999.0000 -999.0000   -9.9900    3.0000    1.0000 -999.0000 -999.0000 -999.0000 -999.0000 -999.0000    4.2039    6.3742   -6.3152 -999.0000    4.2039 -999.0000 -999.0000 -999.0000    0.1800   58.9022 
 250.6980    0.0723    0.6012  250.6910   81.4610    9.6250 7800.0000 -999.0000   22.9607 -999.0000 -999.0000 -999.0000 -999.0000    0.7151 -999.0000 -999.0000   -9.9900    3.0000    1.0000 -999.0000 -999.0000 -999.0000 -999.0000 -999.0000    4.2141    6.4390   -6.4138 -999.0000    4.2141 -999.0000 -999.0000 -999.0000    0.1800   58.8036 
 250.8504    0.0900    0.6015  250.8434   81.6134    9.6250 7800.0000 -999.0000   22.9686 -999.0000 -999.0000 -999.0000 -999.0000    0.7360 -999.0000 -999.0000   -9.9900    3.0000    1.0000 -999.0000 -999.0000 -999.0000 -999.0000 -999.0000    4.1197    6.5806   -6.0151 -999.0000    4.1197 -999.0000 -999.0000 -999.0000    0.1800   59.2023 
 251.0028    0.1076    0.6018  250.9958   81.7658    9.6250 7800.0000 -999.0000   22.9765 -999.0000 -999.0000 -999.0000 -999.0000    0.7428 -999.0000 -999.0000   -9.9900    3.0000    1.0000 -999.0000 -999.0000 -999.0000 -999.0000 -999.0000    4.0409    6.7187   -5.8864 -999.0000    4.0409 -999.0000 -999.0000 -999.0000    0.1800   59.3310 
 251.1552    0.1253    0.6021  251.1482   81.9182    9.6250 7800.0000 -999.0000   22.9844 -999.0000 -999.0000 -999.0000 -999.0000    0.7859 -999.0000 -999.0000   -9.9900    3.0000    1.0000 -999.0000 -999.0000 -999.0000 -999.0000 -999.0000    3.9007    6.6622   -5.0684 -999.0000    3.9007 -999.0000 -999.0000 -999.0000    0.1800   60.1490 
 251.3076    0.1429    0.6024  251.3006   82.0706    9.6250 7800.0000 -999.0000   22.9922 -999.0000 -999.0000 -999.0000 -999.0000    0.7292 -999.0000 -999.0000   -9.9900    3.0000    1.0000 -999.0000 -999.0000 -999.0000 -999.0000 -999.0000    3.8435    6.5178   -6.1446 -999.0000    3.8435 -999.0000 -999.0000 -999.0000    0.1800   59.0728 
 251.4600    0.1605    0.6027  251.4530   82.2230    9.6250 7800.0000 -999.0000   23.0001 -999.0000 -999.0000 -999.0000 -999.0000    0.7408 -999.0000 -999.0000   -9.9900    3.0000    1.0000 -999.0000 -999.0000 -999.0000 -999.0000 -999.0000    3.7747    6.3762   -5.9248 -999.0000    3.7747 -999.0000 -999.0000 -999.0000    0.1800   59.2926 
 251.6124    0.1781    0.6030  251.6054   82.3754    9.6250 7800.0000 -999.0000   23.0080 -999.0000 -999.0000 -999.0000 -999.0000    0.7213 -999.0000 -999.0000   -9.9900    3.0000    1.0000 -999.0000 -999.0000 -999.0000 -999.0000 -999.0000    3.6948    6.1421   -6.2945 -999.0000    3.6948 -999.0000 -999.0000 -999.0000    0.1800   58.9229 
 251.7648    0.1957    0.6033  251.7578   82.5278    9.6250 7800.0000 -999.0000   23.0159 -999.0000 -999.0000 -999.0000 -999.0000    0.6976 -999.0000 -999.0000   -9.9900    3.0000    1.0000 -999.0000 -999.0000 -999.0000 -999.0000 -999.0000    3.5974    6.0491   -6.7461 -999.0000    3.5974 -999.0000 -999.0000 -999.0000    0.1800   58.4713 
 251.9172    0.2132    0.6036  251.9102   82.6802    9.6250 7800.0000 -999.0000   23.0238 -999.0000 -999.0000 -999.0000 -999.0000    0.6845 -999.0000 -999.0000   -9.9900    3.0000    1.0000 -999.0000 -999.0000 -999.0000 -999.0000 -999.0000    3.5363    5.9975   -6.9943 -999.0000    3.5363 -999.0000 -999.0000 -999.0000    0.1800   58.2231 
 252.0696    0.2308    0.6039  252.0626   82.8326    9.6250 7800.0000 -999.0000   23.0316 -999.0000 -999.0000 -999.0000 -999.0000    0.6764 -999.0000 -999.0000   -9.9900    3.0000    1.0000 -999.0000 -999.0000 -999.0000 -999.0000 -999.0000    3.4963    6.0745   -7.1475 -999.0000    3.4963 -999.0000 -999.0000 -999.0000    0.1800   58.0699 
 252.2220    0.2483    0.6042  252.2149   82.9850    9.6250 7800.0000 -999.0000   23.0395 -999.0000 -999.0000 -999.0000 -999.0000    0.6868 -999.0000 -999.0000   -9.9900    3.0000    1.0000 -999.0000 -999.0000 -999.0000 -999.0000 -999.0000    3.5460    6.1436   -6.9515 -999.0000    3.5460 -999.0000 -999.0000 -999.0000    0.1800   58.2659 
