~VERSION INFORMATION
 VERS.                 2.0:   CWLS LOG ASCII STANDARD - VERSION 2.0
 WRAP.                  NO:   SINGLE LINE PER DEPTH STEP
 CREA.                 01/24/2018 18:21:00
#CREATED USING IP VERSION 4.4.2017.271 BY STROBEJO ON 01/24/2018 18:21:00
~WELL INFORMATION
#MNEM.UNIT       DATA                          DESCRIPTION MNEMONIC
#---------      ---------------------------   --------------------------
 STRT    .M         0.0000                    : START DEPTH
 STOP    .M         1062.9900                 : STOP DEPTH
 STEP    .M         0.1524                    : STEP VALUE
 NULL    .      -999.0000                     : NULL VALUE
 DATE    .      01/24/2018                    : LAS file Creation Date
 WELL  .      Landau 172     : Well Name
 COM1  .      WH             : Well Comment
 COMP  .      Wintershall    : Company
 FLD   .      Landau         : Field
 STATE .      Rheinl.-Pfalz  : State
 COUNT .      Germany        : Country
 API   .      252449617201   : API Number
 UWI   .      252449617201   : Unique Well Identifier (UWI)
 LOC   .                     : Location
 LATI  .      5453494.46     : Latitude/Northing
 LONG  .      436438.29      : Longitude/Easting
 PDAT  .      Mean Sea Level : Permanent Datum
 EPDAT .      0.0000         : Elevation of Permanent Datum
 LGMEA .      GL             : Log Measured from
 DRMEA .      GL             : Drill Measured From
 APDAT .      169.23         : Elevation Above Permanent Datum
 GL    .      169.23         : GL Elevation
 RWS   .      0              : Def_Rw
 WST   .      0              : Def_Rwt
 UTMZ  .      32             : UTM Zone
 DATS  .      28.08.1977     : Spud Date
 COMD  .      15.09.1977     : Completion Date
 BHS   .      Producer - Oil : Completion Status
 CNTY  .      Landau/Pfalz   : County
 PROV  .                     : Province
 MDEC  .      0              : Magnetic Declination
 SRVC  .      SCH            : Contractor
~CURVE INFORMATION
#MNEM              UNIT       API CODE   Curve Type  Comments
#----------  --------------- ----------  ----------- -----------
 DEPTH      .M                         : Depth        
 HAZI       .Deg                       : Azimuth      
 HDEVI      .Deg                       : Deviation    
 TVD        .M                         : Depth        
 TVDSS      .M                         : Depth        
 BS         .inch                      : BitSize      
 Bsal       .ppm                       : BitSize      
 K_reg      .mD                        :              
 Temp       .C                         : Temp         
 PHIE       .Dec                       : Phi          
 PHIT       .Dec                       : PhiT         
 SW         .Dec                       : Sw           
 SXO        .Dec                       : Sxo          
 VCL        .Dec                       : Vcl          
 CGDN       .g/c3                      : CoreGD       
 CPERM      .md                        : CorePerm     
 CPOR       .v/v                       : CorePhi      
 Block      .                          :              
 Layer      .                          :              
 CALI       .IN                        : Caliper      Caliper
 GR         .GAPI                      : GammaRay     Gamma Ray
 MINV       .OHMM                      : MicroInvers  Micro-Inverse Resistivity
 MLL        .OHMM                      : MicroRes     Mll Resistivity
 MNOR       .OHMM                      : MicroNor     Micro-Normal Resistivity
 RD         .OHMM                      : DeepRes      Deep Induction Standard Processed Resistivity
 RS         .OHMM                      : ShalRes      Short Normal
 SP         .MV                        : SP           Spontaneous Potential
 RHOB       .G/C3                      : Density      Bulk Density
 LAT        .OHMM                      : DeepRes      Deep Induction Standard Processed Resistivity
 SIGM       .CU                        : sigma        5  RST Sigma
 TPHI       .m3/m3                     : tdt          6  RST Porosity
 SIGM       .CU                        : sigma        5  RST Sigma
 RW_25C     .                          :              
 SPbu       .MV                        : SP           Spontaneous Potential
~P IP parameters
#Name        Value                 Description
#----- --------------------------  -----------
#Logging Run 
 RUN  .     1                                           : Run Number
 DATE .     09/14/1977                                  : Date                      | RUN[0]
 BS   .     8                                           : Bit Size                  | RUN[1]
 DFT  .     /                                           : Type of Fluid in Hole     | RUN[1]
 DFD  .     1                                           : Mud Weight                | RUN[1]
 RMF  .     .82                                         : Rmf                       | RUN[1]
 MFST .     18                                          : at Meas Temp              | RUN[1]
 BHT  .     75                                          : BHT                       | RUN[1]
 TLAB .     ????/12/10                                  : Time at Bottom            | RUN[1]
 R1   .     Teufe korreliert an SLB-IEL vom 13.09.1977  : Remark 1                  | RUN[1]
 RW   .     1                                           : Rw                        | RUN[1]
 CSIZ .     7                                           : Casing Size               | RUN[1]
~A  DEPTH    HAZI     HDEVI      TVD      TVDSS       BS       Bsal     K_reg      Temp      PHIE      PHIT       SW       SXO       VCL       CGDN     CPERM      CPOR     Block     Layer      CALI       GR       MINV      MLL       MNOR       RD        RS        SP       RHOB      LAT       SIGM      TPHI      SIGM     RW_25C     SPbu   
# ...
 303.5808    5.3031    0.6928  303.5704  134.3404    9.6250 7800.0000 -999.0000   25.6946 -999.0000 -999.0000 -999.0000 -999.0000    0.9478 -999.0000 -999.0000   -9.9900    3.0000    1.0000 -999.0000 -999.0000 -999.0000 -999.0000 -999.0000    2.2490    4.8402   -1.9923 -999.0000    2.2490 -999.0000 -999.0000 -999.0000    0.1800   61.6630 
 303.7332    5.3164    0.6925  303.7228  134.4928    9.6250 7800.0000 -999.0000   25.7025 -999.0000 -999.0000 -999.0000 -999.0000    0.9220 -999.0000 -999.0000   -9.9900    3.0000    1.0000 -999.0000 -999.0000 -999.0000 -999.0000 -999.0000    2.2302    4.6981   -2.4814 -999.0000    2.2302 -999.0000 -999.0000 -999.0000    0.1800   61.1641 
 303.8856    5.3298    0.6922  303.8752  134.6452    9.6250 7800.0000 -999.0000   25.7103 -999.0000 -999.0000 -999.0000 -999.0000    0.8954 -999.0000 -999.0000   -9.9900    3.0000    1.0000 -999.0000 -999.0000 -999.0000 -999.0000 -999.0000    2.2153    4.4911   -2.9865 -999.0000    2.2153 -999.0000 -999.0000 -999.0000    0.1800   60.6493 
 304.0380    5.3431    0.6919  304.0276  134.7976    9.6250 7800.0000 -999.0000   25.7182 -999.0000 -999.0000 -999.0000 -999.0000    0.9162 -999.0000 -999.0000   -9.9900    3.0000    1.0000 -999.0000 -999.0000 -999.0000 -999.0000 -999.0000    2.2156    4.2591   -2.5931 -999.0000    2.2156 -999.0000 -999.0000 -999.0000    0.1800   61.0329 
 304.1904    5.3565    0.6916  304.1799  134.9499    9.6250 7800.0000 -999.0000   25.7261 -999.0000 -999.0000 -999.0000 -999.0000    0.9255 -999.0000 -999.0000   -9.9900    3.0000    1.0000 -999.0000 -999.0000 -999.0000 -999.0000 -999.0000    2.2159    4.3471   -2.4158 -999.0000    2.2159 -999.0000 -999.0000 -999.0000    0.1800   61.2005 
 304.3428    5.3699    0.6913  304.3323  135.1023    9.6250 7800.0000 -999.0000   25.7340 -999.0000 -999.0000 -999.0000 -999.0000    0.9227 -999.0000 -999.0000   -9.9900    3.0000    1.0000 -999.0000 -999.0000 -999.0000 -999.0000 -999.0000    2.2066    4.4923   -2.4688 -999.0000    2.2066 -999.0000 -999.0000 -999.0000    0.1800   61.1377 
 304.4952    5.3832    0.6910  304.4847  135.2547    9.6250 7800.0000 -999.0000   25.7419 -999.0000 -999.0000 -999.0000 -999.0000    0.9288 -999.0000 -999.0000   -9.9900    3.0000    1.0000 -999.0000 -999.0000 -999.0000 -999.0000 -999.0000    2.1512    4.5312   -2.3535 -999.0000    2.1512 -999.0000 -999.0000 -999.0000    0.1800   61.2433 
 304.6476    5.3966    0.6907  304.6371  135.4071    9.6250 7800.0000 -999.0000   25.7497 -999.0000 -999.0000 -999.0000 -999.0000    0.9396 -999.0000 -999.0000   -9.9900    3.0000    1.0000 -999.0000 -999.0000 -999.0000 -999.0000 -999.0000    2.1437    4.4216   -2.1478 -999.0000    2.1437 -999.0000 -999.0000 -999.0000    0.1800   61.4392 
 304.8000    5.4100    0.6904  304.7895  135.5595    9.6250 7800.0000 -999.0000   25.7576 -999.0000 -999.0000 -999.0000 -999.0000    0.9567 -999.0000 -999.0000   -9.9900    3.0000    1.0000 -999.0000 -999.0000 -999.0000 -999.0000 -999.0000    2.1552    4.3471   -1.8230 -999.0000    2.1552 -999.0000 -999.0000 -999.0000    0.1800   61.7542 
 304.9524    5.4235    0.6900  304.9419  135.7119    9.6250 7800.0000 -999.0000   25.7655 -999.0000 -999.0000 -999.0000 -999.0000    0.9631 -999.0000 -999.0000   -9.9900    3.0000    1.0000 -999.0000 -999.0000 -999.0000 -999.0000 -999.0000    2.1653    4.4391   -1.7016 -999.0000    2.1653 -999.0000 -999.0000 -999.0000    0.1800   61.8659 
 305.1048    5.4369    0.6897  305.0943  135.8643    9.6250 7800.0000 -999.0000   25.7734 -999.0000 -999.0000 -999.0000 -999.0000    0.9743 -999.0000 -999.0000   -9.9900    3.0000    1.0000 -999.0000 -999.0000 -999.0000 -999.0000 -999.0000    2.2187    4.5564   -1.4886 -999.0000    2.2187 -999.0000 -999.0000 -999.0000    0.1800   62.0692 
 305.2572    5.4503    0.6894  305.2467  136.0167    9.6250 7800.0000 -999.0000   25.7813 -999.0000 -999.0000 -999.0000 -999.0000    0.9711 -999.0000 -999.0000   -9.9900    3.0000    1.0000 -999.0000 -999.0000 -999.0000 -999.0000 -999.0000    2.4452    4.6995   -1.5490 -999.0000    2.4452 -999.0000 -999.0000 -999.0000    0.1800   61.9991 
 305.4096    5.4638    0.6891  305.3991  136.1691    9.6250 7800.0000 -999.0000   25.7891 -999.0000 -999.0000 -999.0000 -999.0000    0.9184 -999.0000 -999.0000   -9.9900    3.0000    1.0000 -999.0000 -999.0000 -999.0000 -999.0000 -999.0000    2.7071    4.8743   -2.5506 -999.0000    2.7071 -999.0000 -999.0000 -999.0000    0.1800   60.9876 
 305.5620    5.4773    0.6888  305.5514  136.3214    9.6250 7800.0000 -999.0000   25.7970 -999.0000 -999.0000 -999.0000 -999.0000    0.9015 -999.0000 -999.0000   -9.9900    3.0000    1.0000 -999.0000 -999.0000 -999.0000 -999.0000 -999.0000    3.0041    5.1376   -2.8717 -999.0000    3.0041 -999.0000 -999.0000 -999.0000    0.1800   60.6569 
 305.7144    5.4907    0.6885  305.7038  136.4738    9.6250 7800.0000 -999.0000   25.8049 -999.0000 -999.0000 -999.0000 -999.0000    0.9020 -999.0000 -999.0000   -9.9900    3.0000    1.0000 -999.0000 -999.0000 -999.0000 -999.0000 -999.0000    3.0841    5.4868   -2.8627 -999.0000    3.0841 -999.0000 -999.0000 -999.0000    0.1800   60.6561 
 305.8668    5.5042    0.6882  305.8562  136.6262    9.6250 7800.0000 -999.0000   25.8128 -999.0000 -999.0000 -999.0000 -999.0000    0.9025 -999.0000 -999.0000   -9.9900    3.0000    1.0000 -999.0000 -999.0000 -999.0000 -999.0000 -999.0000    3.1100    5.6793   -2.8518 -999.0000    3.1100 -999.0000 -999.0000 -999.0000    0.1800   60.6573 
 306.0192    5.5177    0.6879  306.0086  136.7786    9.6250 7800.0000 -999.0000   25.8206 -999.0000 -999.0000 -999.0000 -999.0000    0.9028 -999.0000 -999.0000   -9.9900    3.0000    1.0000 -999.0000 -999.0000 -999.0000 -999.0000 -999.0000    3.0284    5.6008   -2.8463 -999.0000    3.0284 -999.0000 -999.0000 -999.0000    0.1800   60.6530 
 306.1716    5.5313    0.6876  306.1610  136.9310    9.6250 7800.0000 -999.0000   25.8285 -999.0000 -999.0000 -999.0000 -999.0000    0.9178 -999.0000 -999.0000   -9.9900    3.0000    1.0000 -999.0000 -999.0000 -999.0000 -999.0000 -999.0000    2.9143    5.5317   -2.5627 -999.0000    2.9143 -999.0000 -999.0000 -999.0000    0.1800   60.9268 
 306.3240    5.5448    0.6873  306.3134  137.0834    9.6250 7800.0000 -999.0000   25.8364 -999.0000 -999.0000 -999.0000 -999.0000    0.9537 -999.0000 -999.0000   -9.9900    3.0000    1.0000 -999.0000 -999.0000 -999.0000 -999.0000 -999.0000    2.7622    5.3371   -1.8802 -999.0000    2.7622 -999.0000 -999.0000 -999.0000    0.1800   61.5996 
 306.4764    5.5583    0.6869  306.4658  137.2358    9.6250 7800.0000 -999.0000   25.8443 -999.0000 -999.0000 -999.0000 -999.0000    0.9517 -999.0000 -999.0000   -9.9900    3.0000    1.0000 -999.0000 -999.0000 -999.0000 -999.0000 -999.0000    2.4573    4.8997   -1.9176 -999.0000    2.4573 -999.0000 -999.0000 -999.0000    0.1800   61.5525 
 306.6288    5.5719    0.6866  306.6182  137.3882    9.6250 7800.0000 -999.0000   25.8522 -999.0000 -999.0000 -999.0000 -999.0000    0.9658 -999.0000 -999.0000   -9.9900    3.0000    1.0000 -999.0000 -999.0000 -999.0000 -999.0000 -999.0000    2.1691    4.5985   -1.6492 -999.0000    2.1691 -999.0000 -999.0000 -999.0000    0.1800   61.8111 
 306.7812    5.5854    0.6863  306.7706  137.5406    9.6250 7800.0000 -999.0000   25.8600 -999.0000 -999.0000 -999.0000 -999.0000    0.9799 -999.0000 -999.0000   -9.9900    3.0000    1.0000 -999.0000 -999.0000 -999.0000 -999.0000 -999.0000    2.0044    4.4050   -1.3815 -999.0000    2.0044 -999.0000 -999.0000 -999.0000    0.1800   62.0690 
 306.9336    5.5990    0.6860  306.9229  137.6929    9.6250 7800.0000 -999.0000   25.8679 -999.0000 -999.0000 -999.0000 -999.0000    0.9677 -999.0000 -999.0000   -9.9900    3.0000    1.0000 -999.0000 -999.0000 -999.0000 -999.0000 -999.0000    1.8957    4.1129   -1.6145 -999.0000    1.8957 -999.0000 -999.0000 -999.0000    0.1800   61.8263 
 307.0860    5.6126    0.6857  307.0753  137.8453    9.6250 7800.0000 -999.0000   25.8758 -999.0000 -999.0000 -999.0000 -999.0000    0.9489 -999.0000 -999.0000   -9.9900    3.0000    1.0000 -999.0000 -999.0000 -999.0000 -999.0000 -999.0000    1.8982    4.0392   -1.9711 -999.0000    1.8982 -999.0000 -999.0000 -999.0000    0.1800   61.4599 
