~VERSION INFORMATION
 VERS.                 2.0:   CWLS LOG ASCII STANDARD - VERSION 2.0
 WRAP.                  NO:   SINGLE LINE PER DEPTH STEP
 CREA.                 01/24/2018 18:21:00
#CREATED USING IP VERSION 4.4.2017.271 BY STROBEJO ON 01/24/2018 18:21:00
~WELL INFORMATION
#MNEM.UNIT       DATA                          DESCRIPTION MNEMONIC
#---------      ---------------------------   --------------------------
 STRT    .M         0.0000                    : START DEPTH
 STOP    .M         1062.9900                 : STOP DEPTH
 STEP    .M         0.1524                    : STEP VALUE
 NULL    .      -999.0000                     : NULL VALUE
 DATE    .      01/24/2018                    : LAS file Creation Date
 WELL  .      Landau 172     : Well Name
 COM1  .      WH             : Well Comment
 COMP  .      Wintershall    : Company
 FLD   .      Landau         : Field
 STATE .      Rheinl.-Pfalz  : State
 COUNT .      Germany        : Country
 API   .      252449617201   : API Number
 UWI   .      252449617201   : Unique Well Identifier (UWI)
 LOC   .                     : Location
 LATI  .      5453494.46     : Latitude/Northing
 LONG  .      436438.29      : Longitude/Easting
 PDAT  .      Mean Sea Level : Permanent Datum
 EPDAT .      0.0000         : Elevation of Permanent Datum
 LGMEA .      GL             : Log Measured from
 DRMEA .      GL             : Drill Measured From
 APDAT .      169.23         : Elevation Above Permanent Datum
 GL    .      169.23         : GL Elevation
 RWS   .      0              : Def_Rw
 WST   .      0              : Def_Rwt
 UTMZ  .      32             : UTM Zone
 DATS  .      28.08.1977     : Spud Date
 COMD  .      15.09.1977     : Completion Date
 BHS   .      Producer - Oil : Completion Status
 CNTY  .      Landau/Pfalz   : County
 PROV  .                     : Province
 MDEC  .      0              : Magnetic Declination
 SRVC  .      SCH            : Contractor
~CURVE INFORMATION
#MNEM              UNIT       API CODE   Curve Type  Comments
#----------  --------------- ----------  ----------- -----------
 DEPTH      .M                         : Depth        
 HAZI       .Deg                       : Azimuth      
 HDEVI      .Deg                       : Deviation    
 TVD        .M                         : Depth        
 TVDSS      .M                         : Depth        
 BS         .inch                      : BitSize      
 Bsal       .ppm                       : BitSize      
 K_reg      .mD                        :              
 Temp       .C                         : Temp         
 PHIE       .Dec                       : Phi          
 PHIT       .Dec                       : PhiT         
 SW         .Dec                       : Sw           
 SXO        .Dec                       : Sxo          
 VCL        .Dec                       : Vcl          
 CGDN       .g/c3                      : CoreGD       
 CPERM      .md                        : CorePerm     
 CPOR       .v/v                       : CorePhi      
 Block      .                          :              
 Layer      .                          :              
 CALI       .IN                        : Caliper      Caliper
 GR         .GAPI                      : GammaRay     Gamma Ray
 MINV       .OHMM                      : MicroInvers  Micro-Inverse Resistivity
 MLL        .OHMM                      : MicroRes     Mll Resistivity
 MNOR       .OHMM                      : MicroNor     Micro-Normal Resistivity
 RD         .OHMM                      : DeepRes      Deep Induction Standard Processed Resistivity
 RS         .OHMM                      : ShalRes      Short Normal
 SP         .MV                        : SP           Spontaneous Potential
 RHOB       .G/C3                      : Density      Bulk Density
 LAT        .OHMM                      : DeepRes      Deep Induction Standard Processed Resistivity
 SIGM       .CU                        : sigma        5  RST Sigma
 TPHI       .m3/m3                     : tdt          6  RST Porosity
 SIGM       .CU                        : sigma        5  RST Sigma
 RW_25C     .                          :              
 SPbu       .MV                        : SP           Spontaneous Potential
~P IP parameters
#Name        Value                 Description
#----- --------------------------  -----------
#Logging Run 
 RUN  .     1                                           : Run Number
 DATE .     09/14/1977                                  : Date                      | RUN[0]
 BS   .     8                                           : Bit Size                  | RUN[1]
 DFT  .     /                                           : Type of Fluid in Hole     | RUN[1]
 DFD  .     1                                           : Mud Weight                | RUN[1]
 RMF  .     .82                                         : Rmf                       | RUN[1]
 MFST .     18                                          : at Meas Temp              | RUN[1]
 BHT  .     75                                          : BHT                       | RUN[1]
 TLAB .     ????/12/10                                  : Time at Bottom            | RUN[1]
 R1   .     Teufe korreliert an SLB-IEL vom 13.09.1977  : Remark 1                  | RUN[1]
 RW   .     1                                           : Rw                        | RUN[1]
 CSIZ .     7                                           : Casing Size               | RUN[1]
~A  DEPTH    HAZI     HDEVI      TVD      TVDSS       BS       Bsal     K_reg      Temp      PHIE      PHIT       SW       SXO       VCL       CGDN     CPERM      CPOR     Block     Layer      CALI       GR       MINV      MLL       MNOR       RD        RS        SP       RHOB      LAT       SIGM      TPHI      SIGM     RW_25C     SPbu   
# ...
 420.6240   29.1074    0.5978  420.6068  251.3768    9.6250 7800.0000 -999.0000   31.7454 -999.0000 -999.0000 -999.0000 -999.0000    0.9243 -999.0000 -999.0000   -9.9900    3.0000    2.0000 -999.0000 -999.0000 -999.0000 -999.0000 -999.0000    0.9780    1.9942   -2.9085 -999.0000    0.9780 -999.0000 -999.0000 -999.0000    0.1800   60.4251 
 420.7764   29.1379    0.5978  420.7592  251.5292    9.6250 7800.0000 -999.0000   31.7533 -999.0000 -999.0000 -999.0000 -999.0000    0.9111 -999.0000 -999.0000   -9.9900    3.0000    2.0000 -999.0000 -999.0000 -999.0000 -999.0000 -999.0000    0.9780    1.9961   -3.0674 -999.0000    0.9780 -999.0000 -999.0000 -999.0000    0.1800   60.2812 
 420.9288   29.1685    0.5978  420.9116  251.6816    9.6250 7800.0000 -999.0000   31.7611 -999.0000 -999.0000 -999.0000 -999.0000    0.8919 -999.0000 -999.0000   -9.9900    3.0000    2.0000 -999.0000 -999.0000 -999.0000 -999.0000 -999.0000    0.9780    1.9372   -3.2966 -999.0000    0.9780 -999.0000 -999.0000 -999.0000    0.1800   60.0671 
 421.0812   29.1990    0.5978  421.0640  251.8340    9.6250 7800.0000 -999.0000   31.7690 -999.0000 -999.0000 -999.0000 -999.0000    0.8882 -999.0000 -999.0000   -9.9900    3.0000    2.0000 -999.0000 -999.0000 -999.0000 -999.0000 -999.0000    0.9780    1.8814   -3.3420 -999.0000    0.9780 -999.0000 -999.0000 -999.0000    0.1800   60.0368 
 421.2336   29.2296    0.5978  421.2164  251.9864    9.6250 7800.0000 -999.0000   31.7769 -999.0000 -999.0000 -999.0000 -999.0000    0.8995 -999.0000 -999.0000   -9.9900    3.0000    2.0000 -999.0000 -999.0000 -999.0000 -999.0000 -999.0000    0.9780    1.8967   -3.2064 -999.0000    0.9780 -999.0000 -999.0000 -999.0000    0.1800   60.1875 
 421.3860   29.2601    0.5978  421.3688  252.1388    9.6250 7800.0000 -999.0000   31.7848 -999.0000 -999.0000 -999.0000 -999.0000    0.9059 -999.0000 -999.0000   -9.9900    3.0000    2.0000 -999.0000 -999.0000 -999.0000 -999.0000 -999.0000    0.9780    1.9297   -3.1297 -999.0000    0.9780 -999.0000 -999.0000 -999.0000    0.1800   60.2793 
 421.5384   29.2907    0.5978  421.5211  252.2911    9.6250 7800.0000 -999.0000   31.7926 -999.0000 -999.0000 -999.0000 -999.0000    0.8867 -999.0000 -999.0000   -9.9900    3.0000    2.0000 -999.0000 -999.0000 -999.0000 -999.0000 -999.0000    0.9783    1.9447   -3.3593 -999.0000    0.9783 -999.0000 -999.0000 -999.0000    0.1800   60.0648 
 421.6908   29.3212    0.5978  421.6735  252.4435    9.6250 7800.0000 -999.0000   31.8005 -999.0000 -999.0000 -999.0000 -999.0000    0.8850 -999.0000 -999.0000   -9.9900    3.0000    2.0000 -999.0000 -999.0000 -999.0000 -999.0000 -999.0000    0.9989    1.9448   -3.3805 -999.0000    0.9989 -999.0000 -999.0000 -999.0000    0.1800   60.0587 
 421.8432   29.3518    0.5978  421.8259  252.5959    9.6250 7800.0000 -999.0000   31.8084 -999.0000 -999.0000 -999.0000 -999.0000    0.8839 -999.0000 -999.0000   -9.9900    3.0000    2.0000 -999.0000 -999.0000 -999.0000 -999.0000 -999.0000    1.0285    1.9448   -3.3927 -999.0000    1.0285 -999.0000 -999.0000 -999.0000    0.1800   60.0616 
 421.9956   29.3823    0.5978  421.9783  252.7483    9.6250 7800.0000 -999.0000   31.8163 -999.0000 -999.0000 -999.0000 -999.0000    0.8988 -999.0000 -999.0000   -9.9900    3.0000    2.0000 -999.0000 -999.0000 -999.0000 -999.0000 -999.0000    1.1023    1.9440   -3.2141 -999.0000    1.1023 -999.0000 -999.0000 -999.0000    0.1800   60.2554 
 422.1480   29.4129    0.5977  422.1307  252.9007    9.6250 7800.0000 -999.0000   31.8242 -999.0000 -999.0000 -999.0000 -999.0000    0.8979 -999.0000 -999.0000   -9.9900    3.0000    2.0000 -999.0000 -999.0000 -999.0000 -999.0000 -999.0000    1.1796    1.9885   -3.2248 -999.0000    1.1796 -999.0000 -999.0000 -999.0000    0.1800   60.2597 
 422.3004   29.4434    0.5977  422.2831  253.0531    9.6250 7800.0000 -999.0000   31.8320 -999.0000 -999.0000 -999.0000 -999.0000    0.8960 -999.0000 -999.0000   -9.9900    3.0000    2.0000 -999.0000 -999.0000 -999.0000 -999.0000 -999.0000    1.2563    2.0474   -3.2480 -999.0000    1.2563 -999.0000 -999.0000 -999.0000    0.1800   60.2516 
 422.4528   29.4740    0.5977  422.4355  253.2055    9.6250 7800.0000 -999.0000   31.8399 -999.0000 -999.0000 -999.0000 -999.0000    0.8862 -999.0000 -999.0000   -9.9900    3.0000    2.0000 -999.0000 -999.0000 -999.0000 -999.0000 -999.0000    1.2576    2.1928   -3.3654 -999.0000    1.2576 -999.0000 -999.0000 -999.0000    0.1800   60.1493 
 422.6052   29.5046    0.5977  422.5879  253.3579    9.6250 7800.0000 -999.0000   31.8478 -999.0000 -999.0000 -999.0000 -999.0000    0.8849 -999.0000 -999.0000   -9.9900    3.0000    2.0000 -999.0000 -999.0000 -999.0000 -999.0000 -999.0000    1.2447    2.3328   -3.3814 -999.0000    1.2447 -999.0000 -999.0000 -999.0000    0.1800   60.1484 
 422.7576   29.5351    0.5977  422.7403  253.5103    9.6250 7800.0000 -999.0000   31.8557 -999.0000 -999.0000 -999.0000 -999.0000    0.8918 -999.0000 -999.0000   -9.9900    3.0000    2.0000 -999.0000 -999.0000 -999.0000 -999.0000 -999.0000    1.2123    2.3988   -3.2983 -999.0000    1.2123 -999.0000 -999.0000 -999.0000    0.1800   60.2467 
 422.9100   29.5657    0.5977  422.8927  253.6627    9.6250 7800.0000 -999.0000   31.8636 -999.0000 -999.0000 -999.0000 -999.0000    0.8740 -999.0000 -999.0000   -9.9900    3.0000    2.0000 -999.0000 -999.0000 -999.0000 -999.0000 -999.0000    1.1786    2.3655   -3.5119 -999.0000    1.1786 -999.0000 -999.0000 -999.0000    0.1800   60.0481 
 423.0624   29.5962    0.5977  423.0451  253.8151    9.6250 7800.0000 -999.0000   31.8714 -999.0000 -999.0000 -999.0000 -999.0000    0.8716 -999.0000 -999.0000   -9.9900    3.0000    2.0000 -999.0000 -999.0000 -999.0000 -999.0000 -999.0000    1.1351    2.2418   -3.5404 -999.0000    1.1351 -999.0000 -999.0000 -999.0000    0.1800   60.0347 
 423.2148   29.6268    0.5977  423.1975  253.9675    9.6250 7800.0000 -999.0000   31.8793 -999.0000 -999.0000 -999.0000 -999.0000    0.8620 -999.0000 -999.0000   -9.9900    3.0000    2.0000 -999.0000 -999.0000 -999.0000 -999.0000 -999.0000    1.0894    2.0703   -3.6557 -999.0000    1.0894 -999.0000 -999.0000 -999.0000    0.1800   59.9345 
 423.3672   29.6573    0.5977  423.3498  254.1198    9.6250 7800.0000 -999.0000   31.8872 -999.0000 -999.0000 -999.0000 -999.0000    0.8202 -999.0000 -999.0000   -9.9900    3.0000    2.0000 -999.0000 -999.0000 -999.0000 -999.0000 -999.0000    1.0354    1.9493   -4.1577 -999.0000    1.0354 -999.0000 -999.0000 -999.0000    0.1800   59.4476 
 423.5196   29.6879    0.5977  423.5022  254.2722    9.6250 7800.0000 -999.0000   31.8951 -999.0000 -999.0000 -999.0000 -999.0000    0.8217 -999.0000 -999.0000   -9.9900    3.0000    2.0000 -999.0000 -999.0000 -999.0000 -999.0000 -999.0000    0.9619    1.8633   -4.1390 -999.0000    0.9619 -999.0000 -999.0000 -999.0000    0.1800   59.4814 
 423.6720   29.7184    0.5977  423.6546  254.4246    9.6250 7800.0000 -999.0000   31.9029 -999.0000 -999.0000 -999.0000 -999.0000    0.8209 -999.0000 -999.0000   -9.9900    3.0000    2.0000 -999.0000 -999.0000 -999.0000 -999.0000 -999.0000    0.9217    1.8400   -4.1488 -999.0000    0.9217 -999.0000 -999.0000 -999.0000    0.1800   59.4868 
 423.8244   29.7490    0.5977  423.8070  254.5770    9.6250 7800.0000 -999.0000   31.9108 -999.0000 -999.0000 -999.0000 -999.0000    0.8459 -999.0000 -999.0000   -9.9900    3.0000    2.0000 -999.0000 -999.0000 -999.0000 -999.0000 -999.0000    0.8985    1.8227   -3.8486 -999.0000    0.8985 -999.0000 -999.0000 -999.0000    0.1800   59.8020 
 423.9768   29.7796    0.5977  423.9594  254.7294    9.6250 7800.0000 -999.0000   31.9187 -999.0000 -999.0000 -999.0000 -999.0000    0.8487 -999.0000 -999.0000   -9.9900    3.0000    2.0000 -999.0000 -999.0000 -999.0000 -999.0000 -999.0000    0.8982    1.8189   -3.8159 -999.0000    0.8982 -999.0000 -999.0000 -999.0000    0.1800   59.8498 
 424.1292   29.8101    0.5977  424.1118  254.8818    9.6250 7800.0000 -999.0000   31.9266 -999.0000 -999.0000 -999.0000 -999.0000    0.8143 -999.0000 -999.0000   -9.9900    3.0000    2.0000 -999.0000 -999.0000 -999.0000 -999.0000 -999.0000    0.9264    1.8545   -4.2290 -999.0000    0.9264 -999.0000 -999.0000 -999.0000    0.1800   59.4519 
