~VERSION INFORMATION
 VERS.                 2.0:   CWLS LOG ASCII STANDARD - VERSION 2.0
 WRAP.                  NO:   SINGLE LINE PER DEPTH STEP
 CREA.                 01/24/2018 18:21:00
#CREATED USING IP VERSION 4.4.2017.271 BY STROBEJO ON 01/24/2018 18:21:00
~WELL INFORMATION
#MNEM.UNIT       DATA                          DESCRIPTION MNEMONIC
#---------      ---------------------------   --------------------------
 STRT    .M         0.0000                    : START DEPTH
 STOP    .M         1062.9900                 : STOP DEPTH
 STEP    .M         0.1524                    : STEP VALUE
 NULL    .      -999.0000                     : NULL VALUE
 DATE    .      01/24/2018                    : LAS file Creation Date
 WELL  .      Landau 172     : Well Name
 COM1  .      WH             : Well Comment
 COMP  .      Wintershall    : Company
 FLD   .      Landau         : Field
 STATE .      Rheinl.-Pfalz  : State
 COUNT .      Germany        : Country
 API   .      252449617201   : API Number
 UWI   .      252449617201   : Unique Well Identifier (UWI)
 LOC   .                     : Location
 LATI  .      5453494.46     : Latitude/Northing
 LONG  .      436438.29      : Longitude/Easting
 PDAT  .      Mean Sea Level : Permanent Datum
 EPDAT .      0.0000         : Elevation of Permanent Datum
 LGMEA .      GL             : Log Measured from
 DRMEA .      GL             : Drill Measured From
 APDAT .      169.23         : Elevation Above Permanent Datum
 GL    .      169.23         : GL Elevation
 RWS   .      0              : Def_Rw
 WST   .      0              : Def_Rwt
 UTMZ  .      32             : UTM Zone
 DATS  .      28.08.1977     : Spud Date
 COMD  .      15.09.1977     : Completion Date
 BHS   .      Producer - Oil : Completion Status
 CNTY  .      Landau/Pfalz   : County
 PROV  .                     : Province
 MDEC  .      0              : Magnetic Declination
 SRVC  .      SCH            : Contractor
~CURVE INFORMATION
#MNEM              UNIT       API CODE   Curve Type  Comments
#----------  --------------- ----------  ----------- -----------
 DEPTH      .M                         : Depth        
 HAZI       .Deg                       : Azimuth      
 HDEVI      .Deg                       : Deviation    
 TVD        .M                         : Depth        
 TVDSS      .M                         : Depth        
 BS         .inch                      : BitSize      
 Bsal       .ppm                       : BitSize      
 K_reg      .mD                        :              
 Temp       .C                         : Temp         
 PHIE       .Dec                       : Phi          
 PHIT       .Dec                       : PhiT         
 SW         .Dec                       : Sw           
 SXO        .Dec                       : Sxo          
 VCL        .Dec                       : Vcl          
 CGDN       .g/c3                      : CoreGD       
 CPERM      .md                        : CorePerm     
 CPOR       .v/v                       : CorePhi      
 Block      .                          :              
 Layer      .                          :              
 CALI       .IN                        : Caliper      Caliper
 GR         .GAPI                      : GammaRay     Gamma Ray
 MINV       .OHMM                      : MicroInvers  Micro-Inverse Resistivity
 MLL        .OHMM                      : MicroRes     Mll Resistivity
 MNOR       .OHMM                      : MicroNor     Micro-Normal Resistivity
 RD         .OHMM                      : DeepRes      Deep Induction Standard Processed Resistivity
 RS         .OHMM                      : ShalRes      Short Normal
 SP         .MV                        : SP           Spontaneous Potential
 RHOB       .G/C3                      : Density      Bulk Density
 LAT        .OHMM                      : DeepRes      Deep Induction Standard Processed Resistivity
 SIGM       .CU                        : sigma        5  RST Sigma
 TPHI       .m3/m3                     : tdt          6  RST Porosity
 SIGM       .CU                        : sigma        5  RST Sigma
 RW_25C     .                          :              
 SPbu       .MV                        : SP           Spontaneous Potential
~P IP parameters
#Name        Value                 Description
#----- --------------------------  -----------
#Logging Run 
 RUN  .     1                                           : Run Number
 DATE .     09/14/1977                                  : Date                      | RUN[0]
 BS   .     8                                           : Bit Size                  | RUN[1]
 DFT  .     /                                           : Type of Fluid in Hole     | RUN[1]
 DFD  .     1                                           : Mud Weight                | RUN[1]
 RMF  .     .82                                         : Rmf                       | RUN[1]
 MFST .     18                                          : at Meas Temp              | RUN[1]
 BHT  .     75                                          : BHT                       | RUN[1]
 TLAB .     ????/12/10                                  : Time at Bottom            | RUN[1]
 R1   .     Teufe korreliert an SLB-IEL vom 13.09.1977  : Remark 1                  | RUN[1]
 RW   .     1                                           : Rw                        | RUN[1]
 CSIZ .     7                                           : Casing Size               | RUN[1]
~A  DEPTH    HAZI     HDEVI      TVD      TVDSS       BS       Bsal     K_reg      Temp      PHIE      PHIT       SW       SXO       VCL       CGDN     CPERM      CPOR     Block     Layer      CALI       GR       MINV      MLL       MNOR       RD        RS        SP       RHOB      LAT       SIGM      TPHI      SIGM     RW_25C     SPbu   
# ...
 534.0096   47.0423    0.8651  533.9835  364.7535    9.6250 7800.0000   84.1307   37.6069    0.2219    0.3153    1.0000    1.0000    0.2666 -999.0000 -999.0000   -9.9900    3.0000    3.0000    9.7347   46.9048    2.9990    4.1396    2.9491    1.6184    3.6267  -10.2675    2.2445    1.6184   21.5272    0.3749   21.5272    0.1800   52.8850 
 534.1620   47.0714    0.8654  534.1358  364.9058    9.6250 7800.0000   60.0299   37.6148    0.2147    0.3198    1.0000    1.0000    0.3004 -999.0000 -999.0000   -9.9900    3.0000    3.0000    9.7353   47.5057    2.1115    3.4718    2.2715    1.5535    3.6355   -9.7938    2.2450    1.5535   21.6261    0.3817   21.6261    0.1800   53.2946 
 534.3144   47.1006    0.8658  534.2882  365.0582    9.6250 7800.0000   85.6495   37.6227    0.2223    0.3290    1.0000    1.0000    0.3047 -999.0000 -999.0000   -9.9900    3.0000    3.0000    9.7341   46.2624    1.6779    3.8766    2.6249    1.4898    3.3959   -9.7343    2.2303    1.4898   21.7454    0.3888   21.7454    0.1800   53.2899 
 534.4668   47.1297    0.8661  534.4406  365.2106    9.6250 7800.0000   86.1600   37.6306    0.2225    0.3208    1.0000    1.0000    0.2811 -999.0000 -999.0000   -9.9900    3.0000    3.0000    9.7132   43.6251    2.7950    3.5362    2.5599    1.4422    3.3352  -10.0653    2.2385    1.4422   21.6460    0.3876   21.6460    0.1800   52.8948 
 534.6192   47.1588    0.8664  534.5930  365.3630    9.6250 7800.0000   76.8014   37.6385    0.2200    0.3152    1.0000    1.0000    0.2719 -999.0000 -999.0000   -9.9900    3.0000    3.0000    9.7155   42.0007    2.9291    2.7845    2.9291    1.3956    3.3137  -10.1927    2.2460    1.3956   21.4445    0.3867   21.4445    0.1800   52.7032 
 534.7716   47.1879    0.8667  534.7454  365.5154    9.6250 7800.0000   83.5628   37.6463    0.2218    0.3235    1.0000    1.0000    0.2905 -999.0000 -999.0000   -9.9900    3.0000    3.0000    9.7151   41.1409    2.6796    5.5791    2.4701    1.3510    3.3233   -9.9334    2.2363    1.3510   21.4632    0.3816   21.4632    0.1800   52.8984 
 534.9240   47.2169    0.8670  534.8978  365.6678    9.6250 7800.0000  141.9235   37.6542    0.2332    0.3268    1.0000    1.0000    0.2673 -999.0000 -999.0000   -9.9900    3.0000    3.0000    9.7151   41.4550    2.0110    3.9738    2.6198    1.3374    3.3646  -10.2578    2.2250    1.3374   21.3201    0.3819   21.3201    0.1800   52.5099 
 535.0764   47.2460    0.8674  535.0501  365.8201    9.6250 7800.0000  330.8356   37.6621    0.2514    0.3300    1.0000    1.0000    0.2245 -999.0000 -999.0000   -9.9900    3.0000    3.0000    9.7151   42.3081    2.3303    5.7170    2.7894    1.3332    3.3988  -10.8576    2.2090    1.3332   21.3195    0.3798   21.3195    0.1800   51.8459 
 535.2288   47.2750    0.8677  535.2025  365.9725    9.6250 7800.0000  463.8556   37.6700    0.2587    0.3297    1.0000    1.0000    0.2028 -999.0000 -999.0000   -9.9900    3.0000    3.0000    9.7154   42.7542    2.7295    4.3031    2.8393    1.3104    3.4258  -11.1611    2.2042    1.3104   21.1480    0.3802   21.1480    0.1800   51.4783 
 535.3812   47.3040    0.8680  535.3549  366.1249    9.6250 7800.0000 1379.5912   37.6778    0.2822    0.3244    1.0000    1.0000    0.1205 -999.0000 -999.0000   -9.9900    3.0000    3.0000    9.6993   42.1313    1.7315    2.9343    1.5840    1.3030    3.4450  -12.3136    2.1933    1.3030   21.0550    0.3835   21.0550    0.1800   50.2617 
 535.5336   47.3329    0.8683  535.5073  366.2773    9.6250 7800.0000 1962.7780   37.6857    0.2898    0.3313    1.0000    1.0000    0.1184 -999.0000 -999.0000   -9.9900    3.0000    3.0000    9.6949   43.1860    0.2046    3.1632    0.3144    1.3164    3.4183  -12.3417    2.1810    1.3164   21.0825    0.3869   21.0825    0.1800   50.1694 
 535.6860   47.3619    0.8686  535.6597  366.4297    9.6250 7800.0000 2511.9529   37.6936    0.2951    0.3303    1.0000    1.0000    0.1005 -999.0000 -999.0000   -9.9900    3.0000    3.0000    9.6954   45.5749    1.1554    4.1343    1.0589    1.3305    3.4441  -12.5927    2.1782    1.3305   20.7207    0.3904   20.7207    0.1800   49.8543 
 535.8384   47.3908    0.8690  535.8120  366.5821    9.6250 7800.0000 2176.2051   37.7015    0.2920    0.3247    1.0000    1.0000    0.0933 -999.0000 -999.0000   -9.9900    3.0000    3.0000    9.6952   46.5649    0.2760    3.1669    0.3653    1.3764    3.4989  -12.6935    2.1861    1.3764   21.0358    0.3907   21.0358    0.1800   49.6893 
 535.9908   47.4197    0.8693  535.9644  366.7344    9.6250 7800.0000 1869.5958   37.7094    0.2887    0.3180    1.0000    1.0000    0.0835 -999.0000 -999.0000   -9.9900    3.0000    3.0000    9.6978   49.4788    3.6816    3.9850    3.4746    1.4576    3.5187  -12.8305    2.1952    1.4576   21.0585    0.3939   21.0585    0.1800   49.4882 
 536.1432   47.4486    0.8696  536.1168  366.8868    9.6250 7800.0000 1283.0654   37.7172    0.2806    0.3119    1.0000    1.0000    0.0894 -999.0000 -999.0000   -9.9900    3.0000    3.0000    9.7764   56.7965    2.9197    7.2376    3.0877    1.5393    3.5529  -12.7479    2.2070    1.5393   21.4142    0.3956   21.4142    0.1800   49.5067 
 536.2956   47.4775    0.8699  536.2692  367.0392    9.6250 7800.0000  395.5652   37.7251    0.2553    0.2968    1.0000    1.0000    0.1187 -999.0000 -999.0000   -9.9900    3.0000    3.0000    9.8577   69.6658    3.2712    5.5491    3.3227    1.6184    3.6116  -12.3386    2.2400    1.6184   21.3333    0.3864   21.3333    0.1800   49.8518 
 536.4480   47.5063    0.8703  536.4216  367.1916    9.6250 7800.0000   74.7025   37.7330    0.2194    0.2740    1.0000    1.0000    0.1561 -999.0000 -999.0000   -9.9900    3.0000    3.0000    9.9545   79.6663    4.3064    5.1204    3.6178    1.6939    3.6873  -11.8152    2.2883    1.6939   21.5488    0.3709   21.5488    0.1800   50.3112 
 536.6004   47.5351    0.8706  536.5740  367.3440    9.6250 7800.0000    4.0553   37.7409    0.1566    0.2435    1.0000    1.0000    0.2483 -999.0000 -999.0000   -9.9900    3.0000    3.0000   10.1620   81.3418    3.9970    4.4117    3.1487    1.7818    3.7571  -10.5236    2.3631    1.7818   22.1698    0.3610   22.1698    0.1800   51.5386 
 536.7528   47.5639    0.8709  536.7263  367.4963    9.6250 7800.0000    0.4575   37.7488    0.1096    0.2652    1.0000    1.0000    0.4444 -999.0000 -999.0000   -9.9900    3.0000    3.0000   10.3835   67.9566    0.8053    2.1358    2.0070    1.8929    3.7924   -7.7787    2.3739    1.8929   23.2714    0.3744   23.2714    0.1800   54.2194 
 536.9052   47.5927    0.8712  536.8787  367.6487    9.6250 7800.0000    0.0100   37.7566    0.0104    0.2366    1.0000    1.0000    0.6462 -999.0000 -999.0000   -9.9900    3.0000    3.0000   10.5075   59.8304    0.9936    1.4498    1.1527    1.9612    3.6919   -4.9534    2.3065    1.9612   24.5221    0.4070   24.5221    0.1800   56.9806 
 537.0576   47.6214    0.8715  537.0311  367.8011    9.6250 7800.0000    0.0100   37.7645    0.0004    0.2793    1.0000    1.0000    0.7970 -999.0000 -999.0000   -9.9900    3.0000    3.0000   10.5518   51.2741    1.2466    1.6041    1.2625    2.0296    3.4186   -2.8415    2.2400    2.0296   26.6664    0.4343   26.6664    0.1800   59.0283 
 537.2100   47.6502    0.8719  537.1835  367.9535    9.6250 7800.0000    0.0100   37.7724    0.0001    0.3156    1.0000    1.0000    0.9014 -999.0000 -999.0000   -9.9900    3.0000    3.0000   10.3802   47.4514    1.2271    1.8548    1.3323    2.0981    3.3394   -1.3800    2.1067    2.0981   28.9369    0.4521   28.9369    0.1800   60.4257 
 537.3624   47.6789    0.8722  537.3359  368.1059    9.6250 7800.0000    0.0100   37.7803    0.0001    0.3501    1.0000    1.0000    1.0000 -999.0000 -999.0000   -9.9900    3.0000    3.0000   10.4070   44.9904    1.3118    2.3671    1.4122    2.1666    3.2870    0.0434    2.1935    2.1666   30.0621    0.4493   30.0621    0.1800   61.7849 
 537.5148   47.7076    0.8725  537.4883  368.2583    9.6250 7800.0000    0.0100   37.7881    0.0001    0.3432    1.0000    1.0000    0.9801 -999.0000 -999.0000   -9.9900    3.0000    3.0000   10.5298   44.0848    4.0868    6.2413    2.1760    2.2007    3.2296   -0.2780    2.2930    2.2007   29.2810    0.4331   29.2810    0.1800   61.4337 
